Station1,Station2,Frequency,Station1_lat,Station1_lon,Station2_lat,Station2_lon
捷運景美站(2號出口),景華街128巷口,15673,24.99366,121.54124,24.99543,121.54725
捷運辛亥站,興旺公園,5781,25.00467,121.55684,25.00587,121.55012
捷運萬隆站(2號出口),興福國中,4827,25.00144,121.53983,25.00465,121.54916
捷運萬隆站(4號出口),興福國中,989,25.0027,121.53861,25.00465,121.54916
捷運萬隆站(4號出口),景美運動公園,832,25.0027,121.53861,25.00219,121.54454
師範大學公館校區,捷運公館站(4號出口),1280,25.00792,121.53731,25.015069,121.533828
仙跡岩登山口(景興路),景興路42巷口,634,24.99118,121.5436,24.99696,121.54454
捷運木柵站,秀明路一段185巷口,767,24.99798,121.57455,24.99151,121.56836
捷運萬芳社區站,文山行政中心,1438,24.99886,121.56769,24.98959,121.56959
文山運動中心,木柵光輝路口,985,24.99676,121.5596,24.98816,121.55528
景行公園,興豐公園,1700,24.99279,121.54255,24.99982,121.54761
興福國中,興豐公園,1150,25.00465,121.54916,24.99982,121.54761
忠順區民活動中心,永安藝文館-表演36房,1064,24.98471,121.56332,24.98414,121.56907
捷運木柵站,文山行政中心,2584,24.99798,121.57455,24.98959,121.56959
捷運萬隆站(2號出口),萬有3號公園,13283,25.00144,121.53983,24.99889,121.5433
文山第二行政中心,興豐公園,675,25.00115,121.55142,24.99982,121.54761
捷運景美站(2號出口),文山第二行政中心,2343,24.99366,121.54124,25.00115,121.55142
捷運動物園站(2號出口),萬興國小,2077,24.99766,121.57875,24.98939,121.57682
捷運景美站(2號出口),試院公園,1551,24.99366,121.54124,24.98808,121.54723
捷運公館站(1號出口),臺灣科技大學後門,6707,25.014529,121.534374,25.01182,121.54165
捷運公館站(1號出口),臺灣科技大學側門,5479,25.014529,121.534374,25.01295,121.53973
捷運公館站(4號出口),臺灣科技大學後門,2529,25.015069,121.533828,25.01182,121.54165
捷運公館站(4號出口),臺灣科技大學側門,2209,25.015069,121.533828,25.01295,121.53973
捷運古亭站(9號出口),王貫英先生紀念圖書館,959,25.02694,121.52224,25.02266,121.52362
和平龍泉街口,捷運古亭站(9號出口),3890,25.02638,121.52971,25.02694,121.52224
捷運古亭站(9號出口),龍興里活動中心,1142,25.02694,121.52224,25.02815,121.51108
捷運古亭站(2號出口),捷運臺電大樓站(1號出口),990,25.0255,121.52346,25.0197,121.529
捷運古亭站(2號出口),河堤國小,7830,25.0255,121.52346,25.02277,121.52289
捷運古亭站(2號出口),紀州庵,22117,25.0255,121.52346,25.02092,121.52049
師大水源路口,捷運臺電大樓站(4號出口),1315,25.0203,121.52302,25.02102,121.52751
南昌公園,牯嶺公園,3637,25.02698,121.52081,25.02338,121.51889
捷運古亭站(2號出口),牯嶺公園,34919,25.0255,121.52346,25.02338,121.51889
和平重慶路口,捷運古亭站(8號出口),21477,25.02723,121.51659,25.02701,121.52164
捷運古亭站(8號出口),螢橋國小,8178,25.02701,121.52164,25.02609,121.51389
南昌公園,國興青年路口,627,25.02698,121.52081,25.02594,121.50651
南昌公園,郵政博物館,865,25.02698,121.52081,25.03158,121.51464
南昌公園,和平重慶路口,11317,25.02698,121.52081,25.02723,121.51659
和平重慶路口,愛國金山路口,771,25.02723,121.51659,25.03164,121.52661
和平重慶路口,捷運古亭站(9號出口),2600,25.02723,121.51659,25.02694,121.52224
捷運古亭站(7號出口),羅斯福路二段6巷口,1701,25.02805,121.52155,25.02923,121.52058
捷運中正紀念堂站(4號出口),林森徐州路口,771,25.03376,121.51772,25.04094,121.52215
中華桂林路口,捷運中正紀念堂站(4號出口),841,25.03771,121.50662,25.03376,121.51772
南昌公園,螢橋國小,6580,25.02698,121.52081,25.02609,121.51389
捷運古亭站(9號出口),永昌公園,634,25.02694,121.52224,25.02643,121.50936
南機場夜市(中華路二段),古亭國中,1324,25.02886,121.50518,25.02442,121.5107
中華桂林路口,南機場夜市(中華路二段),1778,25.03771,121.50662,25.02886,121.50518
南機場夜市(中華路二段),青年公園高爾夫球場,926,25.02886,121.50518,25.02481,121.50755
南機場夜市(中華路二段),捷運小南門站(2號出口),2264,25.02886,121.50518,25.03567,121.51006
南機場夜市(中華路二段),青年公園棒球場,1430,25.02886,121.50518,25.0241,121.50289
華山文創園區,金山信義路口,811,25.04367,121.52849,25.03443,121.52721
捷運臺北車站(M2出口),華山文創園區,1211,25.04821,121.51903,25.04367,121.52849
中正運動中心,捷運中正紀念堂站(5號出口),7961,25.03786,121.51985,25.03526,121.5168
信義杭州路口,捷運中正紀念堂站(4號出口),1101,25.0357,121.5241,25.03376,121.51772
捷運善導寺站(3號出口),捷運臺大醫院站(4號出口),1115,25.04428,121.52336,25.04297,121.51643
南機場夜市(中華路二段),捷運小南門站(1號出口),982,25.02886,121.50518,25.03648,121.50951
中華桂林路口,捷運小南門站(1號出口),12348,25.03771,121.50662,25.03648,121.50951
捷運西門站(2號出口),聯合醫院和平院區,1332,25.0416,121.50842,25.03516,121.50641
寶慶博愛路口,捷運臺大醫院站(4號出口),1526,25.04129,121.5112,25.04297,121.51643
國家圖書館,捷運西門站(3號出口),777,25.03763,121.51709,25.04178,121.50869
市民金山路口,捷運臺北車站(M2出口),4345,25.0459,121.53068,25.04821,121.51903
市民金山路口,捷運中山站(2號出口),1408,25.0459,121.53068,25.05228,121.52176
南京林森路口(東南側),市民金山路口,648,25.05201,121.52556,25.0459,121.53068
聯合醫院和平院區,郵政博物館,1584,25.03516,121.50641,25.03158,121.51464
中華漢口街口,捷運西門站(5號出口),7205,25.04533,121.50944,25.04244,121.50864
中華路一段21巷口,永樂市場,791,25.04677,121.50989,25.05454,121.51052
中山徐州路口,臺大醫院兒童醫院,3856,25.04178,121.51907,25.04461,121.5188
信義連雲街口,建國和平路口西北側,1735,25.03377,121.53041,25.02606,121.53738
太原廣場,臺北轉運站,735,25.04925,121.51468,25.04842,121.51994
光華商場,臺北轉運站,2397,25.04478,121.53274,25.04842,121.51994
市民金山路口,臺北轉運站,2970,25.0459,121.53068,25.04842,121.51994
臺北轉運站,華山文創園區,1218,25.04842,121.51994,25.04367,121.52849
市民林森路口,臺北轉運站,3989,25.04796,121.52439,25.04842,121.51994
光華商場,捷運忠孝復興站(2號出口),1463,25.04478,121.53274,25.04035,121.5436
光華商場,松江公園,2281,25.04478,121.53274,25.05025,121.53273
光華商場,捷運東門站(5號出口),1019,25.04478,121.53274,25.03363,121.52962
捷運中正紀念堂站(5號出口),林森仁愛路口,1142,25.03526,121.5168,25.03915,121.52163
中正運動中心,金山信義路口,3982,25.03786,121.51985,25.03443,121.52721
金山信義路口,金甌女中,855,25.03443,121.52721,25.03519,121.5245
徐州杭州路口,捷運善導寺站(3號出口),1794,25.04023,121.52565,25.04428,121.52336
北平東杭州北路口,捷運臺北車站(M2出口),823,25.04553,121.52736,25.04821,121.51903
捷運西門站(5號出口),莒光郵局,715,25.04244,121.50864,25.03124,121.50122
捷運古亭站(6號出口),羅斯福寧波東街口,3343,25.0276,121.52217,25.03145,121.51941
和平金山路口,羅斯福寧波東街口,1043,25.02669,121.52529,25.03145,121.51941
捷運古亭站(5號出口),羅斯福寧波東街口,634,25.02715,121.52293,25.03145,121.51941
和平龍泉街口,羅斯福寧波東街口,996,25.02638,121.52971,25.03145,121.51941
仁愛林森路口,信義杭州路口,756,25.03895,121.52233,25.0357,121.5241
仁愛林森路口,捷運東門站(5號出口),1373,25.03895,121.52233,25.03363,121.52962
中華漢口街口,捷運西門站(3號出口),1094,25.04533,121.50944,25.04178,121.50869
捷運西門站(3號出口),永樂市場,626,25.04178,121.50869,25.05454,121.51052
中華桂林路口,捷運西門站(3號出口),10551,25.03771,121.50662,25.04178,121.50869
南機場夜市(中華路二段),捷運西門站(3號出口),2383,25.02886,121.50518,25.04178,121.50869
捷運中正紀念堂站(3號出口),龍興里活動中心,1766,25.03239,121.51866,25.02815,121.51108
南門國中,植物園,1028,25.03543,121.50834,25.0299,121.51033
捷運臺大醫院站(4號出口),郵政博物館,3527,25.04297,121.51643,25.03158,121.51464
中華桂林路口,郵政博物館,1392,25.03771,121.50662,25.03158,121.51464
捷運忠孝新生站(1號出口),華山文創園區,2303,25.04272,121.53207,25.04367,121.52849
市民金山路口,捷運忠孝新生站(1號出口),2232,25.0459,121.53068,25.04272,121.53207
臺大醫院兒童醫院,華山文創園區,626,25.04461,121.5188,25.04367,121.52849
忠孝西重慶南路口,捷運西門站(5號出口),2879,25.04724,121.51272,25.04244,121.50864
忠孝西重慶南路口,開封西寧路口,3256,25.04724,121.51272,25.04662,121.50717
捷運劍南路站(2號出口),樂群二明水路口,3166,25.08401,121.55535,25.08009,121.55226
北安大直街口,捷運劍南路站(1號出口),1718,25.08474,121.54968,25.08519,121.55498
捷運劍南路站(2號出口),敬業三樂群三路口(西北側),1019,25.08401,121.55535,25.08272,121.55624
中429公園,捷運劍南路站(2號出口),1890,25.07864,121.55557,25.08401,121.55535
捷運劍南路站(2號出口),樂群二敬業四路口,58121,25.08401,121.55535,25.07976,121.55813
捷運大直站(3號出口),樂群二敬業四路口,6174,25.07923,121.5473,25.07976,121.55813
復興市民路口,捷運忠孝復興站(2號出口),7265,25.04585,121.54375,25.04035,121.5436
復興市民路口,長春龍江路口,727,25.04585,121.54375,25.05473,121.54026
復興市民路口,龍門廣場,1500,25.04585,121.54375,25.04092,121.54825
台北科技大學億光大樓,復興市民路口,935,25.04177,121.53833,25.04585,121.54375
大安高工,復興市民路口,621,25.03126,121.54339,25.04585,121.54375
光華商場,南京遼寧街口,1082,25.04478,121.53274,25.05176,121.54217
內政部營建署,南京遼寧街口,4390,25.04769,121.5448,25.05176,121.54217
南京遼寧街口,復興市民路口,10521,25.05176,121.54217,25.04585,121.54375
捷運中山站(2號出口),新生長安路口,1796,25.05228,121.52176,25.04861,121.52935
市民林森路口,市民金山路口,1395,25.04796,121.52439,25.0459,121.53068
南京新生路口,捷運雙連站(2號出口),1152,25.05194,121.52766,25.05826,121.52063
光華商場,南京新生路口,2607,25.04478,121.53274,25.05194,121.52766
南京龍江路口,朱崙商場,1170,25.05205,121.54012,25.04762,121.54043
健康新城,民權運動公園,1039,25.05408,121.56095,25.062,121.56019
捷運小巨蛋站(5號出口)_1,敦化長春路口,874,25.05181,121.5521,25.0536,121.54871
復興北路514巷口東側,捷運中山國中站,11415,25.06597,121.54117,25.06106,121.54406
平安新城,捷運南京復興站(5號出口),631,25.05528,121.559,25.05168,121.54506
南京東路五段59巷口,捷運小巨蛋站(5號出口),1536,25.05163,121.55907,25.05176,121.55352
捷運市政府站(3號出口),象山公園,4813,25.04084,121.56789,25.02863,121.56981
吉林路407巷口,捷運行天宮站(3號出口),2238,25.06595,121.53041,25.05992,121.5333
大理高中,錦德公園,920,25.03124,121.49075,25.02332,121.49264
捷運古亭站(6號出口),羅斯福路三段311號前,709,25.0276,121.52217,25.01717,121.53202
台北市災害應變中心,臺北南山廣場_1,6868,25.02868,121.56672,25.03404,121.56598
捷運忠孝新生站(2號出口),濟南路二段8巷口,1501,25.04235,121.53222,25.04127,121.52697
仁愛金山路口(東南側),捷運東門站(5號出口),836,25.03811,121.52855,25.03363,121.52962
北安大直街口,捷運劍南路站(2號出口),4356,25.08474,121.54968,25.08401,121.55535
捷運劍南路站(2號出口),樂群二敬業三路口,15000,25.08401,121.55535,25.07985,121.55609
臺大法人語言訓練中心前,辛亥新生路口東南側,1944,25.02104,121.54081,25.02218,121.53474
市民松信路口,永吉松信路口,715,25.04927,121.57205,25.04548,121.57207
捷運象山站(2號出口),象山公園,42051,25.03222,121.56974,25.02863,121.56981
松仁路95巷口,松高路(信義新天地A4館),821,25.03656,121.56866,25.03918,121.56654
吳興公車總站,捷運台北101/世貿站(2號出口),3678,25.02388,121.56984,25.0327,121.56157
松山家商(林口街),松山車站,5672,25.03593,121.57906,25.0489,121.57841
捷運台北101/世貿站(2號出口),泰和里民活動中心,603,25.0327,121.56157,25.0213,121.57027
吳興街284巷(廣安宮),捷運六張犁站,1914,25.02326,121.56329,25.02397,121.55266
復華花園新城,西本願寺廣場,1753,25.02964,121.50258,25.04099,121.50769
忠德公園,捷運龍山寺站(1號出口),5957,25.02516,121.49604,25.03535,121.49938
捷運科技大樓站,臺大男六舍前,3506,25.02605,121.5436,25.01664,121.5452
基隆長興路口東側,臺灣科技大學後門,619,25.01727,121.54471,25.01182,121.54165
光復北路11巷口,捷運南京復興站(5號出口),1301,25.04937,121.558,25.05168,121.54506
捷運公館站(2號出口),臺大男一舍前,26825,25.01491,121.53438,25.01637,121.54535
復興南路二段128巷口,捷運大安站(4號出口),8133,25.02861,121.54336,25.0332,121.5439
捷運六張犁站,捷運麟光站(2號出口),2121,25.02397,121.55266,25.0181,121.55929
忠順區民活動中心,景文中學,1163,24.98471,121.56332,24.98574,121.56745
捷運劍潭站(2號出口),百齡國小,60327,25.08388,121.52535,25.08521,121.51918
中山天母路口,蘭雅公園,2301,25.11856,121.52964,25.10991,121.53039
中山天母路口,榮富公園,1489,25.11856,121.52964,25.1137,121.52437
捷運大安森林公園站(5號出口),敦親公園,4950,25.03336,121.5364,25.02347,121.54108
東園國小,青年公園3號出口,1377,25.02257,121.49807,25.02273,121.50271
中山天母路口,捷運芝山站(1號出口),1985,25.11856,121.52964,25.10225,121.52286
中山天母路口,北投運動中心,1147,25.11856,121.52964,25.11666,121.50962
捷運芝山站(2號出口),臺北市立大學(天母校區),971,25.10364,121.52219,25.11356,121.53718
捷運芝山站(2號出口)_1,蘭興公園,38335,25.10336,121.52263,25.11184,121.52589
捷運士林站(2號出口),華齡街185巷口,2214,25.09343,121.52642,25.08828,121.51985
捷運芝山站(2號出口),蘭興公園,3717,25.10364,121.52219,25.11184,121.52589
劍潭海外青年活動中心_1,捷運劍潭站(2號出口),16805,25.0796,121.5237,25.08388,121.52535
捷運中山國中站,第二果菜批發市場,10516,25.06106,121.54406,25.06642,121.53735
民權龍江路口,第二果菜批發市場,1427,25.06225,121.54107,25.06642,121.53735
中山行政中心,興安華城,633,25.06432,121.53349,25.05606,121.54175
捷運行天宮站(3號出口),興安華城,2284,25.05992,121.5333,25.05606,121.54175
興安合江路口,興安華城,838,25.05619,121.53949,25.05606,121.54175
內政部營建署,捷運中山國中站,1074,25.04769,121.5448,25.06106,121.54406
捷運中山國中站,民有一號公園,18620,25.06106,121.54406,25.06095,121.54731
捷運中山國中站,新喜公園,1190,25.06106,121.54406,25.06533,121.53177
捷運中山國中站,龍江錦州街口,9551,25.06106,121.54406,25.06045,121.54077
建國農安街口,捷運中山國中站,3799,25.06503,121.53678,25.06106,121.54406
國立臺北大學(臺北校區),捷運中山國中站,11550,25.05794,121.54244,25.06106,121.54406
吉林路407巷口,捷運中山國中站,818,25.06595,121.53041,25.06106,121.54406
下埤公園,捷運中山國中站,11867,25.06682,121.54213,25.06106,121.54406
捷運中山國中站,榮星花園,29352,25.06106,121.54406,25.06424,121.54037
捷運行天宮站(3號出口),龍江錦州街口,9492,25.05992,121.5333,25.06045,121.54077
榮星花園,龍江錦州街口,1373,25.06424,121.54037,25.06045,121.54077
南京新生路口,捷運松江南京站(7號出口),6282,25.05194,121.52766,25.05246,121.5332
南京建國路口,捷運松江南京站(7號出口),14649,25.05214,121.5368,25.05246,121.5332
復興市民路口,捷運松江南京站(7號出口),1036,25.04585,121.54375,25.05246,121.5332
捷運松江南京站(7號出口),江寧公園,1033,25.05246,121.5332,25.0614,121.53929
捷運松江南京站(7號出口),興安合江路口,2425,25.05246,121.5332,25.05619,121.53949
捷運行天宮站(3號出口),朱崙商場,918,25.05992,121.5333,25.04762,121.54043
內政部營建署,朱崙商場,2315,25.04769,121.5448,25.04762,121.54043
捷運松江南京站(4號出口),朱崙商場,1267,25.0512,121.53312,25.04762,121.54043
南京伊通街口,朱崙商場,1766,25.05189,121.53517,25.04762,121.54043
朱崙商場,興安華城,1390,25.04762,121.54043,25.05606,121.54175
復興市民路口,江寧公園,619,25.04585,121.54375,25.0614,121.53929
捷運行天宮站(3號出口),民權龍江路口,4109,25.05992,121.5333,25.06225,121.54107
捷運中山國中站,民權龍江路口,11249,25.06106,121.54406,25.06225,121.54107
榮星花園,民權龍江路口,1273,25.06424,121.54037,25.06225,121.54107
捷運行天宮站(3號出口),江寧公園,13096,25.05992,121.5333,25.0614,121.53929
捷運行天宮站(3號出口),民權建國路口(南側),8190,25.05992,121.5333,25.06228,121.53702
捷運行天宮站(3號出口),第二果菜批發市場,14094,25.05992,121.5333,25.06642,121.53735
中山行政中心,捷運行天宮站(3號出口),23487,25.06432,121.53349,25.05992,121.5333
捷運行天宮站(3號出口),長春龍江路口,682,25.05992,121.5333,25.05473,121.54026
捷運中山國中站,捷運行天宮站(3號出口),10861,25.06106,121.54406,25.05992,121.5333
南京新生路口,捷運行天宮站(3號出口),1672,25.05194,121.52766,25.05992,121.5333
建國農安街口,捷運行天宮站(3號出口),11446,25.06503,121.53678,25.05992,121.5333
五常國中,捷運行天宮站(3號出口),910,25.06505,121.54366,25.05992,121.5333
捷運行天宮站(3號出口),榮星花園,5700,25.05992,121.5333,25.06424,121.54037
捷運中山國小站(4號出口),民權吉林路口,4301,25.06283,121.52697,25.06269,121.53061
捷運中山國小站(4號出口),新生德惠街口,9089,25.06283,121.52697,25.06652,121.52762
中山行政中心,農安雙城街口,1063,25.06432,121.53349,25.06491,121.52449
撫順公園,臺北市立美術館,628,25.06416,121.52203,25.06987,121.52291
中山民族路口,撫順公園,1979,25.06816,121.52265,25.06416,121.52203
中山民族路口,捷運圓山站(1號出口),10695,25.06816,121.52265,25.07133,121.52024
南京林森路口(東南側),捷運中山站(2號出口),12902,25.05201,121.52556,25.05228,121.52176
仁德公園,捷運中山站(2號出口),1020,25.05337,121.5289,25.05228,121.52176
中原公園,捷運中山站(2號出口),1581,25.05583,121.52821,25.05228,121.52176
榮星花園,第二果菜批發市場,2425,25.06424,121.54037,25.06642,121.53735
捷運行天宮站(3號出口),民權建國路口,4902,25.05992,121.5333,25.06251,121.53765
捷運行天宮站(3號出口),松江路431巷口,14315,25.05992,121.5333,25.06585,121.53338
捷運中山國小站(4號出口),新喜公園,3020,25.06283,121.52697,25.06533,121.53177
台北數位產業園區,林安泰古厝,803,25.07447,121.52003,25.07154,121.53058
中山公民會館,捷運中山站(2號出口),1531,25.06185,121.5226,25.05228,121.52176
捷運中山站(2號出口),林森長春路口,16030,25.05228,121.52176,25.05497,121.52536
捷運中山站(2號出口),松江公園,954,25.05228,121.52176,25.05025,121.53273
圓環站,捷運中山站(2號出口),5672,25.05369,121.51418,25.05228,121.52176
捷運中山站(2號出口),捷運松江南京站(8號出口),1264,25.05228,121.52176,25.05215,121.53276
南京新生路口,捷運中山站(2號出口),11884,25.05194,121.52766,25.05228,121.52176
捷運圓山站(1號出口),新生公園,2026,25.07133,121.52024,25.06839,121.53032
林森長春路口,臺北轉運站(華陰街),2832,25.05497,121.52536,25.04937,121.51914
林森長春路口,臺北轉運站,2808,25.05497,121.52536,25.04842,121.51994
中山農安街口,林森長春路口,1133,25.0651,121.5224,25.05497,121.52536
中山農安街口,捷運雙連站(2號出口),1347,25.0651,121.5224,25.05826,121.52063
光復南路22巷口,基隆忠孝路口西南側,1849,25.04693,121.55771,25.04108,121.5629
吉林路123巷口,捷運松江南京站(8號出口),691,25.05731,121.53021,25.05215,121.53276
中原民生路口,捷運雙連站(2號出口),1233,25.05808,121.52887,25.05826,121.52063
國立臺北大學(臺北校區),民有一號公園,824,25.05794,121.54244,25.06095,121.54731
中山北路二段59巷口,林森公園,1378,25.05606,121.5229,25.05223,121.52581
中山北路二段59巷口,農安雙城街口,922,25.05606,121.5229,25.06491,121.52449
捷運雙連站(2號出口),永盛公園(民生東路一段23巷),6431,25.05826,121.52063,25.05873,121.52488
捷運中山站(2號出口),永盛公園(民生東路一段23巷),2958,25.05228,121.52176,25.05873,121.52488
新興公園,永盛公園(民生東路一段23巷),1087,25.06157,121.52439,25.05873,121.52488
林森公園,興安合江路口,915,25.05223,121.52581,25.05619,121.53949
復興北路514巷口東側,第二果菜批發市場,935,25.06597,121.54117,25.06642,121.53735
復興北路514巷口東側,江寧公園,1004,25.06597,121.54117,25.0614,121.53929
台泥大樓,捷運中山站(2號出口),1476,25.06142,121.52305,25.05228,121.52176
新興公園,林森長春路口,2341,25.06157,121.52439,25.05497,121.52536
南京龍江路口,復興市民路口,980,25.05205,121.54012,25.04585,121.54375
南京龍江路口,捷運南京復興站(8號出口),2351,25.05205,121.54012,25.05196,121.5433
圓山線形公園,撫順街41巷(崇德宮前),1032,25.06867,121.51993,25.06389,121.51916
劍潭社區_1,捷運大直站(1號出口),5976,25.08476,121.53789,25.0801,121.54708
光華商場,捷運松江南京站(4號出口),2437,25.04478,121.53274,25.0512,121.53312
捷運松江南京站(4號出口),捷運行天宮站(3號出口),1226,25.0512,121.53312,25.05992,121.5333
伊通長安路口,捷運松江南京站(4號出口),12942,25.04833,121.53469,25.0512,121.53312
捷運松江南京站(7號出口),松江民生路口,1617,25.05246,121.5332,25.05765,121.53299
吉林路123巷口,松江路132巷口,1111,25.05731,121.53021,25.05277,121.53013
中原公園,捷運松江南京站(8號出口),2608,25.05583,121.52821,25.05215,121.53276
光華商場,捷運松江南京站(8號出口),1725,25.04478,121.53274,25.05215,121.53276
捷運大直站(3號出口)_1,樂群二敬業四路口,2910,25.07934,121.54671,25.07976,121.55813
敬業三樂群三路口(西北側),樂群二明水路口_1,1315,25.08272,121.55624,25.07983,121.55236
捷運南京復興站(7號出口),長春龍江路口,1999,25.05278,121.54478,25.05473,121.54026
吉林路407巷口,民權新生路口,871,25.06595,121.53041,25.06305,121.52776
建國長春路口(北側),捷運松江南京站(7號出口),11803,25.05476,121.53693,25.05246,121.5332
中山行政中心,建國農安街口,1829,25.06432,121.53349,25.06503,121.53678
中山行政中心,林森長春路口,1021,25.06432,121.53349,25.05497,121.52536
南京伊通街口,林森公園,662,25.05189,121.53517,25.05223,121.52581
捷運南京復興站(1號出口),興安華城,12679,25.05253,121.54256,25.05606,121.54175
大直街94巷,捷運大直站(1號出口),3947,25.08431,121.54755,25.0801,121.54708
林森德惠街口,林森長春路口,1693,25.06688,121.5257,25.05497,121.52536
捷運劍南路站(1號出口),文湖街21巷118弄口,4372,25.08519,121.55498,25.09122,121.55961
敬業三樂群三路口(西北側),樂群二敬業三路口,1667,25.08272,121.55624,25.07985,121.55609
北勢湖環保公園,捷運西湖站(2號出口),1585,25.08378,121.56208,25.08205,121.56716
文湖街81巷10號西側,西康公園,848,25.08707,121.56406,25.08284,121.56449
捷運西湖站(1號出口),文湖街81巷10號西側,8907,25.08301,121.56638,25.08707,121.56406
捷運西湖站(1號出口),麗山國小,3866,25.08301,121.56638,25.0826,121.57158
大湖國小,捷運大湖公園站(2號出口),16385,25.08803,121.59958,25.08395,121.60185
康寧星雲街口,捷運文德站(2號出口),653,25.07958,121.59336,25.07842,121.58464
捷運西湖站(1號出口),環山路二段26巷口,3138,25.08301,121.56638,25.08598,121.572
環山路二段26巷口,麗山國小,815,25.08598,121.572,25.0826,121.57158
成功金龍路口,金瑞公園,9822,25.08436,121.59478,25.08785,121.5879
捷運內湖站(1號出口),金瑞公園,15499,25.08373,121.59406,25.08785,121.5879
捷運文德站(2號出口),文德二號公園(南側),2458,25.07842,121.58464,25.07504,121.58375
扶輪親恩公園,新湖三民善街口,1789,25.06709,121.58002,25.06286,121.57497
三軍總醫院,捷運文德站(2號出口),2987,25.07151,121.58991,25.07842,121.58464
捷運文德站(2號出口),碧湖公園(內湖路二段103巷),7140,25.07842,121.58464,25.08317,121.58109
捷運港墘站(2號出口),瑞光公共住宅(瑞光路),2158,25.07967,121.57584,25.07335,121.57951
捷運港墘站(2號出口),瑞陽公園,2834,25.07967,121.57584,25.07777,121.57961
捷運港墘站(2號出口),湖光國宅,3108,25.07967,121.57584,25.07538,121.58079
東湖國中,東湖國小,2508,25.07334,121.61962,25.06854,121.61532
捷運內湖站(1號出口),碧山公園,23027,25.08373,121.59406,25.0878,121.59227
湖光國宅,瑞湖陽光街口,888,25.07538,121.58079,25.07296,121.57603
三軍總醫院,下灣公園(成功路),660,25.07151,121.58991,25.06682,121.5907
捷運劍南路站(2號出口),西康二號公園,733,25.08401,121.55535,25.08503,121.5637
內湖路一段360巷,捷運西湖站(1號出口),1018,25.0812,121.57067,25.08301,121.56638
成功路三段83號前,捷運文德站(2號出口),3697,25.07823,121.5898,25.07842,121.58464
內湖路一段47巷,捷運劍南路站(1號出口),4249,25.08781,121.55872,25.08519,121.55498
康寧路三段189巷93弄口,捷運葫洲站(1號出口),2401,25.0735,121.61258,25.07249,121.60796
北投運動中心,文林建民路口,1025,25.11666,121.50962,25.10788,121.51457
捷運關渡站(1號出口),關渡醫院,19432,25.12397,121.46712,25.1203,121.4665
捷運關渡站(1號出口),關渡宮,8249,25.12397,121.46712,25.11739,121.46288
國防大學政治作戰學院,捷運復興崗站(1號出口),3167,25.13776,121.49345,25.1378,121.4863
國防大學政治作戰學院,捷運新北投站,1183,25.13776,121.49345,25.13733,121.50339
捷運新北投站,秀山區民活動中心,824,25.13733,121.50339,25.14582,121.49303
大業大同街口,捷運北投站(1號出口),25074,25.13691,121.49987,25.13258,121.49862
北投公園露天溫泉,捷運新北投站,1611,25.13684,121.50792,25.13733,121.50339
捷運北投站,捷運新北投站,1446,25.13187,121.499,25.13733,121.50339
捷運奇岩站(三合街),清江國小,53756,25.12634,121.50099,25.12725,121.50676
大業路300巷口,捷運奇岩站(三合街),3807,25.12814,121.49782,25.12634,121.50099
捷運唭哩岸站(2號出口),捷運奇岩站(三合街),819,25.12087,121.50523,25.12634,121.50099
大豐公園,清江國小,3361,25.13102,121.50408,25.12725,121.50676
捷運唭哩岸站(2號出口),立農國小,1165,25.12087,121.50523,25.11978,121.50422
北投運動中心,振興公園,777,25.11666,121.50962,25.11865,121.5235
北投運動中心,蘭興公園,1016,25.11666,121.50962,25.11184,121.52589
捷運石牌站(1號出口),陽明大學,6895,25.11542,121.51469,25.11912,121.51223
捷運石牌站(2號出口),臺北健康護理大學(教研大樓),12799,25.11451,121.51567,25.11857,121.51846
中山天母路口,捷運石牌站(2號出口),4996,25.11856,121.52964,25.11451,121.51567
台北護理大學,捷運石牌站(2號出口),4861,25.11752,121.51662,25.11451,121.51567
振興醫院,捷運明德站(3號出口),5971,25.11753,121.52186,25.11,121.51841
振興公園,捷運石牌站(2號出口),7024,25.11865,121.5235,25.11451,121.51567
北投運動中心,承德路七段280巷口,656,25.11666,121.50962,25.11587,121.50576
捷運明德站(3號出口),榮富公園,7027,25.11,121.51841,25.1137,121.52437
中央北路四段30巷口,捷運忠義站(1號出口),3375,25.13539,121.478,25.13149,121.47365
捷運明德站(3號出口),蘭興公園,3288,25.11,121.51841,25.11184,121.52589
大豐公園,捷運北投站(1號出口),7180,25.13102,121.50408,25.13258,121.49862
捷運北投站(1號出口),文化三杏林一路口,20056,25.13258,121.49862,25.14058,121.49915
奇岩4號綠地,捷運奇岩站(三合街),14972,25.12533,121.50573,25.12634,121.50099
捷運北投站(1號出口),豐年公園_1,8171,25.13258,121.49862,25.13597,121.49702
和信治癌中心醫院,捷運關渡站(1號出口),1599,25.12757,121.47207,25.12397,121.46712
北投公園露天溫泉,捷運新北投站(2號出口),1066,25.13684,121.50792,25.13675,121.50224
中和街493巷9弄口,捷運北投站(1號出口),2489,25.1439,121.49447,25.13258,121.49862
捷運北投站(1號出口),捷運新北投站,13765,25.13258,121.49862,25.13733,121.50339
大興光明路2巷口,捷運北投站(1號出口),693,25.13043,121.50017,25.13258,121.49862
北投運動中心,捷運唭哩岸站(1號出口),4251,25.11666,121.50962,25.12082,121.50727
捷運松山站(4號出口),玉成公園運動中心,607,25.04987,121.57785,25.04193,121.58493
南港路三段220巷口,捷運松山站(4號出口),3393,25.05289,121.58599,25.04987,121.57785
捷運松山站(4號出口),林口公園,2571,25.04987,121.57785,25.03894,121.57915
捷運昆陽站(1號出口),捷運松山站(4號出口),1341,25.05014,121.59238,25.04987,121.57785
合心廣場,捷運松山站(4號出口),3590,25.04608,121.58315,25.04987,121.57785
南京東興路口,塔悠八德路口,619,25.05149,121.56535,25.05009,121.57202
中崙高中,南京東興路口,1299,25.04878,121.56087,25.05149,121.56535
復盛公園,捷運南京三民站(2號出口),8460,25.04763,121.56115,25.05136,121.56283
捷運南京三民站(1號出口),民權運動公園,2348,25.05155,121.5636,25.062,121.56019
捷運南京三民站(1號出口),民生立體停車場,8201,25.05155,121.5636,25.05846,121.55947
捷運南京三民站(1號出口),民生活動中心,29199,25.05155,121.5636,25.05907,121.56305
捷運南京三民站(1號出口),新東街51巷口,6560,25.05155,121.5636,25.0615,121.56332
捷運南京三民站(1號出口),長壽公園,5417,25.05155,121.5636,25.05378,121.55893
捷運南京三民站(1號出口),西松高中(健康路325巷),5774,25.05155,121.5636,25.05567,121.56713
捷運南京三民站(1號出口),新東公園,3430,25.05155,121.5636,25.05925,121.56888
光復北路11巷口,南京東路五段59巷口,756,25.04937,121.558,25.05163,121.55907
健安新城,光復北路11巷口,1036,25.05606,121.56345,25.04937,121.558
光復北路11巷口,捷運小巨蛋站(3號出口),2744,25.04937,121.558,25.05152,121.55243
民有一號公園,臺北田徑場,1454,25.06095,121.54731,25.04951,121.54941
民有一號公園,民生光復路口,902,25.06095,121.54731,25.05834,121.55496
民生敦化路口,民生活動中心,2379,25.05804,121.54897,25.05907,121.56305
捷運南京復興站(8號出口),民生敦化路口,742,25.05196,121.5433,25.05804,121.54897
松基公園,臺北田徑場,1035,25.0546,121.54486,25.04951,121.54941
民生光復路口,民生活動中心,2503,25.05834,121.55496,25.05907,121.56305
健康新城,民生活動中心,3238,25.05408,121.56095,25.05907,121.56305
健康新城,捷運小巨蛋站(2號出口),910,25.05408,121.56095,25.05157,121.55118
捷運南京復興站(5號出口),臺北市藝文推廣處,5392,25.05168,121.54506,25.04826,121.55235
敦北公園,民生立體停車場,1574,25.06118,121.55098,25.05846,121.55947
平安新城,敦北公園,619,25.05528,121.559,25.06118,121.55098
新東街51巷口,民生光復路口,1197,25.0615,121.56332,25.05834,121.55496
三民公園,南京東興路口,809,25.06128675,121.566679,25.05149,121.56535
八德路三段74巷口,捷運國父紀念館站(1號出口),937,25.04459,121.55252,25.04205,121.55657
八德路三段74巷口,捷運南京復興站(5號出口),873,25.04459,121.55252,25.05168,121.54506
三軍總醫院(松山分院),臺北市藝文推廣處,820,25.05419,121.55631,25.04826,121.55235
市民東興路口,捷運市政府站(3號出口),2131,25.0484,121.56586,25.04084,121.56789
光復南路22巷口,捷運國父紀念館站(2號出口),9323,25.04693,121.55771,25.04122,121.55745
中崙福成宮,光復南路22巷口,859,25.04524,121.54659,25.04693,121.55771
光復南路22巷口,市民東興路口,1071,25.04693,121.55771,25.0484,121.56586
內政部營建署,捷運南京復興站(5號出口),14205,25.04769,121.5448,25.05168,121.54506
內政部營建署,捷運忠孝復興站(5號出口),5477,25.04769,121.5448,25.04262,121.54443
內政部營建署,捷運忠孝復興站(2號出口),3334,25.04769,121.5448,25.04035,121.5436
健康新城,民生立體停車場,1501,25.05408,121.56095,25.05846,121.55947
健康新城,臺北市藝文推廣處,940,25.05408,121.56095,25.04826,121.55235
健安新城,民權運動公園,720,25.05606,121.56345,25.062,121.56019
健安新城,捷運南京三民站(2號出口),2565,25.05606,121.56345,25.05136,121.56283
健安新城,捷運南京三民站(1號出口),39385,25.05606,121.56345,25.05155,121.5636
中崙福成宮,南京遼寧街口,1022,25.04524,121.54659,25.05176,121.54217
捷運南京復興站(7號出口),民生復興路口,3338,25.05278,121.54478,25.05764,121.54443
南京光復路口,捷運南京復興站(7號出口),789,25.05143,121.55716,25.05278,121.54478
捷運中山國中站,捷運南京復興站(7號出口),1890,25.06106,121.54406,25.05278,121.54478
捷運南京復興站(5號出口),敦化八德路口,5341,25.05168,121.54506,25.04802,121.54864
捷運南京三民站(1號出口),捷運小巨蛋站(5號出口),1509,25.05155,121.5636,25.05176,121.55352
捷運南京復興站(5號出口),捷運小巨蛋站(5號出口),1424,25.05168,121.54506,25.05176,121.55352
南京東路五段59巷口,捷運南京三民站(1號出口),10842,25.05163,121.55907,25.05155,121.5636
民生立體停車場,長壽公園,634,25.05846,121.55947,25.05378,121.55893
西松高中(健康路325巷),長壽公園,607,25.05567,121.56713,25.05378,121.55893
復源公園,捷運南京復興站(5號出口),2478,25.04634,121.5542,25.05168,121.54506
南京東興路口,西松高中,1836,25.05149,121.56535,25.05492,121.56701
南京東興路口,松山高中,1180,25.05149,121.56535,25.0433,121.5638
捷運松山站(3號出口),松山高中,1111,25.04962,121.57746,25.0433,121.5638
南京東興路口,捷運松山站(3號出口),1016,25.05149,121.56535,25.04962,121.57746
捷運松山站(3號出口),松山永吉路口,2949,25.04962,121.57746,25.04623,121.57772
捷運松山站(3號出口),福德公園,1472,25.04962,121.57746,25.03841,121.58355
捷運松山站(3號出口),松德虎林街口,1647,25.04962,121.57746,25.0383,121.5762
介壽國中,健安新城,807,25.05722,121.55706,25.05606,121.56345
捷運小巨蛋站(5號出口)_1,敦化南京路口(東北側),1136,25.05181,121.5521,25.05226,121.54926
內政部營建署,敦化南京路口(東北側),669,25.04769,121.5448,25.05226,121.54926
敦化南京路口(東北側),民有一號公園,1132,25.05226,121.54926,25.06095,121.54731
敦化八德路口,敦化長春路口,1301,25.04802,121.54864,25.0536,121.54871
捷運南京三民站(1號出口),敦化八德路口,603,25.05155,121.5636,25.04802,121.54864
捷運南京三民站(3號出口),新東街51巷口,1162,25.05129,121.56426,25.0615,121.56332
八德立體停車場,捷運松山站(3號出口),3730,25.04985,121.57189,25.04962,121.57746
捷運南京復興站(5號出口),捷運小巨蛋站(3號出口),2746,25.05168,121.54506,25.05152,121.55243
南京光復路口,捷運小巨蛋站(3號出口),7461,25.05143,121.55716,25.05152,121.55243
捷運小巨蛋站(3號出口),興安華城,611,25.05152,121.55243,25.05606,121.54175
介壽國中,捷運小巨蛋站(5號出口)_1,2718,25.05722,121.55706,25.05181,121.5521
南京光復路口,敦化北路155巷口,743,25.05143,121.55716,25.0542,121.5491
捷運行天宮站(3號出口),民生復興路口,1478,25.05992,121.5333,25.05764,121.54443
敦化長春路口,民生復興路口,956,25.0536,121.54871,25.05764,121.54443
捷運南京三民站(3號出口),長壽公園,604,25.05129,121.56426,25.05378,121.55893
捷運南京三民站(3號出口),興雅國小(基隆路一段37巷),896,25.05129,121.56426,25.04773,121.56895
南港公園(福德街),捷運後山埤站(2號出口),3684,25.04128,121.59089,25.04395,121.58184
合心廣場,捷運昆陽站(1號出口),1490,25.04608,121.58315,25.05014,121.59238
成德國中,捷運昆陽站(1號出口),1521,25.04592,121.5882,25.05014,121.59238
小彎社會住宅,捷運昆陽站(1號出口),8287,25.0582,121.59368,25.05014,121.59238
捷運昆陽站(1號出口),東陽公園,7661,25.05014,121.59238,25.05716,121.59792
忠孝東路六段278巷口,捷運昆陽站(1號出口),6511,25.04916,121.58906,25.05014,121.59238
捷運昆陽站(1號出口),松山車站,2046,25.05014,121.59238,25.0489,121.57841
南港路三段130巷口,捷運昆陽站(1號出口),839,25.05457,121.58781,25.05014,121.59238
捷運後山埤站(1號出口),捷運永春站(2號出口),676,25.04437,121.58133,25.0405,121.57538
捷運後山埤站(1號出口),捷運松山站(4號出口),2954,25.04437,121.58133,25.04987,121.57785
捷運後山埤站(1號出口),捷運松山站(3號出口),1945,25.04437,121.58133,25.04962,121.57746
中坡市民路口(東北側),合心廣場,1204,25.04969,121.58028,25.04608,121.58315
合心廣場,松山車站,4645,25.04608,121.58315,25.0489,121.57841
成德國中,松山車站,2745,25.04592,121.5882,25.0489,121.57841
捷運後山埤站(1號出口),玉成公園,744,25.04437,121.58133,25.04281,121.58613
力行橋(南港),研究院舊莊街口,1084,25.05172,121.61686,25.04239,121.61683
南港軟體園區(新民街),捷運南港展覽館站(5號出口),4821,25.05627,121.61369,25.05469,121.61669
南港加壓站,捷運南港展覽館站(5號出口),6694,25.04805,121.61594,25.05469,121.61669
世貿公園,捷運南港展覽館站(5號出口),5957,25.05831,121.61422,25.05469,121.61669
捷運南港展覽館站(5號出口),捷運南港軟體園區(2號出口),4044,25.05469,121.61669,25.05933,121.61677
捷運南港展覽館站(5號出口),福山公園,8531,25.05469,121.61669,25.04499,121.61775
南港車站(興華路),捷運南港展覽館站(5號出口),962,25.05343,121.60633,25.05469,121.61669
捷運南港展覽館站(5號出口),舊莊區民活動中心,5434,25.05469,121.61669,25.04139,121.6191
南湖大橋(經貿二路255巷),捷運南港展覽館站(5號出口),879,25.06148,121.61384,25.05469,121.61669
中研公園,捷運南港站(2號出口),1867,25.04697,121.61375,25.05201,121.60741
中研公園,福山公園,977,25.04697,121.61375,25.04499,121.61775
捷運南港站(2號出口),興中立體停車場(興中路),871,25.05201,121.60741,25.05629,121.607
捷運南港展覽館站(5號出口),臺北市立圖書館南港分館,628,25.05469,121.61669,25.05485,121.60866
南港展覽館2館,臺北市立圖書館南港分館,622,25.05545,121.61646,25.05485,121.60866
南港車站(興華路),向陽南港路口,1232,25.05343,121.60633,25.05437,121.59423
中研公園,南港車站(忠孝東路七段415巷),920,25.04697,121.61375,25.05252,121.60922
南港車站(市民大道),東新國小,5103,25.05326,121.60656,25.05507,121.6028
南港車站(興華路),興南公園,7225,25.05343,121.60633,25.05766,121.60396
南港車站(市民大道),捷運南港展覽館站(5號出口),2486,25.05326,121.60656,25.05469,121.61669
南港車站(市民大道),向陽南港路口,717,25.05326,121.60656,25.05437,121.59423
南港展覽館2館,南港車站(市民大道),1413,25.05545,121.61646,25.05326,121.60656
忠孝東路七段527巷口,捷運南港站(2號出口),5497,25.05266,121.61275,25.05201,121.60741
世貿公園,南港展覽館2館,2764,25.05831,121.61422,25.05545,121.61646
世貿公園,南港車站(市民大道),7794,25.05831,121.61422,25.05326,121.60656
南港高中(昆陽街),小彎社會住宅,790,25.05285,121.59279,25.0582,121.59368
捷運後山埤站(3號出口),玉成公園(成福路178巷口),4860,25.04511,121.5836,25.04177,121.58735
捷運後山埤站(2號出口),百福公園,7324,25.04395,121.58184,25.03884,121.58788
力行橋(南港),南港車站(市民大道),866,25.05172,121.61686,25.05326,121.60656
小彎社會住宅,捷運昆陽站(4號出口),4947,25.0582,121.59368,25.05066,121.59431
成德綠地,捷運松山站(4號出口),1129,25.04675,121.58731,25.04987,121.57785
南港國小,南港車站(興華路),4336,25.05668,121.61137,25.05343,121.60633
松仁路95巷口,玉成公園(成福路178巷口),650,25.03656,121.56866,25.04177,121.58735
成福路197巷口,捷運後山埤站(3號出口),3405,25.04066,121.58877,25.04511,121.5836
成福路197巷口,捷運後山埤站(2號出口),6123,25.04066,121.58877,25.04395,121.58184
南港展覽館2館,南港車站(興華路),682,25.05545,121.61646,25.05343,121.60633
捷運關渡站(1號出口),立功立德路口,8335,25.12397,121.46712,25.12501,121.47158
內湖運動中心,捷運港墘站(2號出口),1861,25.07848,121.57493,25.07967,121.57584
九華公園,捷運西湖站(1號出口),2518,25.08844,121.56122,25.08301,121.56638
捷運東湖站,東湖國中,3921,25.06664,121.61351,25.07334,121.61962
捷運港墘站(1號出口),港都公園,7604,25.08004,121.57568,25.08296,121.5752
捷運石牌站(2號出口),永欣綠地,2739,25.11451,121.51567,25.12416,121.52607
關渡宮,關渡醫院,938,25.11739,121.46288,25.1203,121.4665
臺灣科技大學後門,黎忠區民活動中心,633,25.01182,121.54165,25.02035,121.55769
光復信義路口東南側,嘉興街175巷口,626,25.03281,121.55756,25.02811,121.55671
捷運六張犁站,臺北醫學大學,16193,25.02397,121.55266,25.02668,121.56175
松仁路253巷3弄,臺北醫學大學,909,25.02678,121.56884,25.02668,121.56175
捷運台北101/世貿站(2號出口),臺北醫學大學,47268,25.0327,121.56157,25.02668,121.56175
臺北醫學大學,黎忠區民活動中心,3026,25.02668,121.56175,25.02035,121.55769
三興公園,捷運台北101/世貿站(2號出口),9230,25.02868,121.55932,25.0327,121.56157
捷運象山站(2號出口),泰和公園,11723,25.03222,121.56974,25.0193,121.57105
捷運象山站(2號出口),松仁路253巷3弄,23037,25.03222,121.56974,25.02678,121.56884
捷運市政府站(3號出口),捷運象山站(2號出口),1293,25.04084,121.56789,25.03222,121.56974
吳興公車總站,捷運象山站(2號出口),24083,25.02388,121.56984,25.03222,121.56974
臺北南山廣場_1,象山公園,1671,25.03404,121.56598,25.02863,121.56981
松仁路121巷口,松仁路253巷3弄,3915,25.03476,121.56865,25.02678,121.56884
吳興街260巷,松仁路253巷3弄,2332,25.02606,121.5631,25.02678,121.56884
捷運象山站(1號出口),松仁路253巷3弄,1636,25.03295,121.56867,25.02678,121.56884
吳興公車總站,捷運象山站(1號出口),2915,25.02388,121.56984,25.03295,121.56867
捷運永春站(2號出口),松德路200巷,11163,25.0405,121.57538,25.03471,121.57301
中全公園,捷運永春站(2號出口),6907,25.0382,121.57495,25.0405,121.57538
中全公園,捷運象山站(3號出口),5508,25.0382,121.57495,25.03295,121.5712
台北市災害應變中心,興雅松仁路口,5551,25.02868,121.56672,25.0401,121.56822
台北市災害應變中心,捷運信義安和站(4號出口),1086,25.02868,121.56672,25.03305,121.55378
信義運動中心,吳興公車總站,3181,25.03189,121.56678,25.02388,121.56984
信義基隆路口,信義運動中心,1315,25.03321,121.55873,25.03189,121.56678
捷運台北101/世貿站(3號出口),臺北南山廣場_1,724,25.03275,121.56337,25.03404,121.56598
市府松高路口,景新公園,1119,25.03899,121.56369,25.03003,121.56287
光復信義路口東南側,臺北南山廣場_1,1710,25.03281,121.55756,25.03404,121.56598
光復信義路口東南側,松仁路95巷口,931,25.03281,121.55756,25.03656,121.56866
三張犁,仁愛逸仙路口,711,25.03452,121.5576,25.03771,121.56124
三張犁,捷運國父紀念館站(1號出口),1005,25.03452,121.5576,25.04205,121.55657
三張犁,捷運信義安和站(1號出口),8658,25.03452,121.5576,25.03331,121.55265
仁愛路四段496巷口,市府松高路口,1937,25.03745,121.5602,25.03899,121.56369
仁愛路四段496巷口,捷運國父紀念館站(2號出口),7011,25.03745,121.5602,25.04122,121.55745
三張犁,仁愛路四段496巷口,846,25.03452,121.5576,25.03745,121.5602
捷運象山站(3號出口),松友公園,15451,25.03295,121.5712,25.03423,121.57636
捷運永春站(2號出口),松友公園,11810,25.0405,121.57538,25.03423,121.57636
松仁路121巷口,松友公園,2092,25.03476,121.56865,25.03423,121.57636
松仁路95巷口,松友公園,1852,25.03656,121.56866,25.03423,121.57636
捷運市政府站(3號出口),林口公園,2072,25.04084,121.56789,25.03894,121.57915
捷運市政府站(3號出口),松智松壽路口,1229,25.04084,121.56789,25.03607,121.56535
仁愛延吉街口,松智松壽路口,1879,25.03748,121.55564,25.03607,121.56535
吳興街260巷,松智松壽路口,1575,25.02606,121.5631,25.03607,121.56535
市府松高路口,松仁路95巷口,1025,25.03899,121.56369,25.03656,121.56866
台北市災害應變中心,市府松高路口,1741,25.02868,121.56672,25.03899,121.56369
信義廣場(台北101),捷運象山站(2號出口),629,25.03306,121.5662,25.03222,121.56974
信義廣場(台北101),吳興街260巷,6663,25.03306,121.5662,25.02606,121.5631
信義廣場(台北101),吳興街284巷(廣安宮),1428,25.03306,121.5662,25.02326,121.56329
仁愛延吉街口,信義廣場(台北101),761,25.03748,121.55564,25.03306,121.5662
信義廣場(台北101),臥龍樂業街口,754,25.03306,121.5662,25.01856,121.55558
信義廣場(台北101),吳興公車總站,4125,25.03306,121.5662,25.02388,121.56984
信義廣場(台北101),嘉興街175巷口,1008,25.03306,121.5662,25.02811,121.55671
三興國小,信義廣場(台北101),1359,25.02969,121.55766,25.03306,121.5662
捷運信義安和站(4號出口),捷運台北101/世貿站(5號出口),1301,25.03305,121.55378,25.03338,121.56333
捷運台北101/世貿站(5號出口),松智松壽路口,2240,25.03338,121.56333,25.03607,121.56535
捷運文德站(2號出口),瑞光公共住宅(瑞光路),5120,25.07842,121.58464,25.07335,121.57951
捷運復興崗站(1號出口),捷運復興崗站旅客服務中心,5123,25.1378,121.4863,25.13666,121.48159
捷運復興崗站(1號出口),稻香重三路口,7118,25.1378,121.4863,25.13997,121.48967
捷運龍山寺站(1號出口)_1,錦德公園,1231,25.03548,121.50026,25.02332,121.49264
西園艋舺路口,雙園國中,1699,25.03267,121.49757,25.02673,121.49176
捷運龍山寺站(1號出口),雙園國中,5184,25.03535,121.49938,25.02673,121.49176
捷運龍山寺站(1號出口),環河南雙園街口,7009,25.03535,121.49938,25.03203,121.49127
大理高中,捷運龍山寺站(1號出口)_1,1351,25.03124,121.49075,25.03548,121.50026
國興青年路口,萬華青年公宅,849,25.02594,121.50651,25.02021,121.50376
圓環站,開封西寧路口,1698,25.05369,121.51418,25.04662,121.50717
捷運龍山寺站(1號出口),西本願寺廣場,1166,25.03535,121.49938,25.04099,121.50769
西本願寺廣場,龍山國中,1368,25.04099,121.50769,25.03646,121.50492
中華桂林路口,臺北市立大學(博愛校區),9211,25.03771,121.50662,25.03545,121.51327
中華桂林路口,中華路一段21巷口,1184,25.03771,121.50662,25.04677,121.50989
捷運龍山寺站(1號出口),西園公園,2281,25.03535,121.49938,25.0271,121.49775
捷運龍山寺站(1號出口),錦德公園,5266,25.03535,121.49938,25.02332,121.49264
捷運圓山站(2號出口),樹德公園_1,2703,25.07182,121.51929,25.06669,121.51615
捷運大安森林公園站(5號出口),臺北市立圖書館(總館),42831,25.03336,121.5364,25.02895,121.5379
捷運劍南路站(2號出口),文湖街81巷10號西側,2715,25.08401,121.55535,25.08707,121.56406
捷運古亭站(9號出口),羅斯福三段金門街口,1182,25.02694,121.52224,25.02345,121.52498
捷運市政府站(3號出口),松德虎林街口,1536,25.04084,121.56789,25.0383,121.5762
捷運永春站(2號出口),松山家商(林口街),6888,25.0405,121.57538,25.03593,121.57906
捷運松山站(4號出口),玉東公園(東新街),1236,25.04987,121.57785,25.04998,121.58383
捷運古亭站(2號出口),羅斯福三段金門街口,7652,25.0255,121.52346,25.02345,121.52498
劍潭基河路口,華齡街185巷口,1727,25.08403,121.5249,25.08828,121.51985
兒童新樂園,陽明高中,902,25.09631,121.51449,25.09164,121.51706
蘭雅公園,雨農國小,1366,25.10991,121.53039,25.1054,121.5295
捷運芝山站(1號出口),聯合醫院陽明院區,5075,25.10225,121.52286,25.10455,121.53195
捷運芝山站(1號出口),聖山綠地,14556,25.10225,121.52286,25.10696,121.53234
忠誠路一段173巷口,捷運芝山站(1號出口),7954,25.10813,121.5304,25.10225,121.52286
天母棒球場,捷運芝山站(1號出口),4597,25.11341,121.53195,25.10225,121.52286
捷運芝山站(1號出口),芝山抽水站,14791,25.10225,121.52286,25.10155,121.52832
捷運芝山站(1號出口),臺北市立大學(天母校區),2767,25.10225,121.52286,25.11356,121.53718
啟明學校,士林3號廣場,952,25.11742,121.53472,25.10459,121.52417
士林3號廣場,臺北市立大學(天母校區),886,25.10459,121.52417,25.11356,121.53718
捷運市政府站(3號出口),福祥公園,2081,25.04084,121.56789,25.04626,121.57045
吳興公車總站,松仁路121巷口,4372,25.02388,121.56984,25.03476,121.56865
新生南路三段82號前,臺灣科技大學後門,2811,25.01894,121.53361,25.01182,121.54165
信義敦化路口,捷運忠孝敦化站(7號出口),3971,25.03333,121.54977,25.04159,121.54937
三興國小,台北市災害應變中心,1688,25.02969,121.55766,25.02868,121.56672
和平新生路口西南側,新生南路三段82號前,1161,25.02598,121.53454,25.01894,121.53361
原臺北刑務所官舍,羅斯福寧波東街口,877,25.03054,121.52466,25.03145,121.51941
仁愛敦南圓環(西北側),仁愛醫院,662,25.03827,121.54802,25.03756,121.54587
大豐公園,捷運北投站,4326,25.13102,121.50408,25.13187,121.499
台北市災害應變中心,捷運象山站(2號出口),8975,25.02868,121.56672,25.03222,121.56974
承德路七段280巷口,捷運唭哩岸站(2號出口),5508,25.11587,121.50576,25.12087,121.50523
北投運動中心,石牌立農街口,2581,25.11666,121.50962,25.11879,121.51921
北投運動中心,捷運石牌站(2號出口),25348,25.11666,121.50962,25.11451,121.51567
北投運動中心,榮富公園,605,25.11666,121.50962,25.1137,121.52437
承德石牌路口,捷運石牌站(2號出口),3637,25.11272,121.50922,25.11451,121.51567
捷運石牌站(2號出口),致遠一路二段11巷,5601,25.11451,121.51567,25.11093,121.51382
天母北天玉街口,捷運石牌站(2號出口),2570,25.12011,121.52652,25.11451,121.51567
北投運動中心,石牌國小,5071,25.11666,121.50962,25.1144,121.51307
捷運龍山寺站(1號出口),華江八號公園,12822,25.03535,121.49938,25.03388,121.49293
環河南雙園街口,龍山國小,634,25.03203,121.49127,25.0355,121.49541
洛陽停車場,華西公園,625,25.04776,121.50612,25.03852,121.49881
老松國小,西本願寺廣場,2319,25.03792,121.50177,25.04099,121.50769
聯合醫院和平院區,萬華火車站,1449,25.03516,121.50641,25.03364,121.50322
大理高中,萬華火車站(D2廣場),1357,25.03124,121.49075,25.03394,121.50117
捷運龍山寺站(1號出口),萬華266號綠地,2694,25.03535,121.49938,25.0403,121.50197
德昌街10巷口,萬華火車站(D2廣場),1287,25.02533,121.4996,25.03394,121.50117
捷運龍山寺站(1號出口),長順艋舺大道口,2979,25.03535,121.49938,25.03035,121.49228
捷運北門站(3號出口),洛陽停車場,4417,25.04991,121.5104,25.04776,121.50612
寶興長泰街口(西南角),萬華國中_1,1177,25.0216,121.49597,25.02926,121.49936
捷運龍山寺站(1號出口)_1,萬華國中_1,1191,25.03548,121.50026,25.02926,121.49936
士林3號廣場,蘭興公園,4515,25.10459,121.52417,25.11184,121.52589
士林新天地,捷運劍潭站(2號出口),18872,25.08899,121.51751,25.08388,121.52535
市立圖書館葫蘆堵分館,捷運圓山站(2號出口),3615,25.08217,121.51074,25.07182,121.51929
捷運芝山站(1號出口),芝山聖佑宮,2505,25.10225,121.52286,25.10455,121.53025
捷運劍潭站(1號出口),捷運士林站(2號出口),1708,25.08577,121.52531,25.09343,121.52642
延平國宅,捷運圓山站(1號出口),3620,25.07894,121.51121,25.07133,121.52024
前港公園(福德宮),捷運劍潭站(1號出口),1317,25.08671,121.52096,25.08577,121.52531
捷運劍潭站(1號出口),文林路101巷口,2679,25.08577,121.52531,25.08761,121.52608
承德劍潭路口,福港街停車場,3976,25.0841,121.52341,25.08695,121.51901
士林新天地,承德劍潭路口,2784,25.08899,121.51751,25.0841,121.52341
啟明學校,捷運石牌站(2號出口),671,25.11742,121.53472,25.11451,121.51567
德行公園,芝山國小,3039,25.10585,121.52376,25.11044,121.53595
德行公園,忠誠路一段173巷口,868,25.10585,121.52376,25.10813,121.5304
臺大大一女舍北側,臺大男八舍東側,3330,25.01547,121.53436,25.01729,121.54531
捷運中山站(5號出口),捷運行政大樓,626,25.05296,121.51938,25.05575,121.52168
建國和平路口西北側,捷運大安森林公園站(5號出口),37589,25.02606,121.53738,25.03336,121.5364
松江民生路口,林森長春路口,905,25.05765,121.53299,25.05497,121.52536
承德昌吉街口,承德民權路口,985,25.06587,121.51847,25.06247,121.51839
光復北路11巷口,捷運小巨蛋站(5號出口)_1,616,25.04937,121.558,25.05181,121.5521
光復北路11巷口,捷運南京三民站(2號出口),6701,25.04937,121.558,25.05136,121.56283
中正高中,捷運明德站(1號出口),7959,25.10467,121.51654,25.10896,121.51936
復興公園,捷運北投站,1178,25.13872,121.5021,25.13187,121.499
捷運明德站(3號出口),致遠一路二段11巷,2961,25.11,121.51841,25.11093,121.51382
捷運明德站(3號出口),文林建民路口,13446,25.11,121.51841,25.10788,121.51457
國防大學政治作戰學院,捷運北投站(1號出口),18833,25.13776,121.49345,25.13258,121.49862
光明溫泉路口,捷運北投站(1號出口),13027,25.13431,121.50226,25.13258,121.49862
復興公園,捷運北投站(1號出口),9456,25.13872,121.5021,25.13258,121.49862
中和街455巷11弄,捷運北投站(1號出口),3408,25.14319,121.49621,25.13258,121.49862
和信治癌中心醫院,捷運忠義站(2號出口),7494,25.12757,121.47207,25.13076,121.47347
敦北公園,民權運動公園,3607,25.06118,121.55098,25.062,121.56019
捷運圓山站(1號出口),樹德公園_1,4050,25.07133,121.52024,25.06669,121.51615
喬治工商,捷運信義安和站(4號出口),6810,25.02705,121.55551,25.03305,121.55378
捷運永春站(2號出口),春光公園,1589,25.0405,121.57538,25.0427,121.58112
春光公園,松仁路95巷口,2745,25.0427,121.58112,25.03656,121.56866
台北市災害應變中心,松仁路121巷口,3508,25.02868,121.56672,25.03476,121.56865
松仁路121巷口,松德公園,794,25.03476,121.56865,25.03657,121.57349
捷運象山站(3號出口),福德國小,1700,25.03295,121.5712,25.03846,121.58618
松山車站,福德國小,6066,25.0489,121.57841,25.03846,121.58618
捷運後山埤站(2號出口),福德公園,26391,25.04395,121.58184,25.03841,121.58355
松山車站,福德公園,6545,25.0489,121.57841,25.03841,121.58355
南港公園(福德街),福德公園,863,25.04128,121.59089,25.03841,121.58355
捷運市政府站(3號出口),福德公園,1089,25.04084,121.56789,25.03841,121.58355
林口公園,福德公園,2278,25.03894,121.57915,25.03841,121.58355
松仁路95巷口,興雅松仁路口,13067,25.03656,121.56866,25.0401,121.56822
松德路200巷,興雅松仁路口,3280,25.03471,121.57301,25.0401,121.56822
吳興公車總站,捷運市政府站(3號出口),5632,25.02388,121.56984,25.04084,121.56789
吳興公車總站,松仁松平路口,1020,25.02388,121.56984,25.03047,121.56838
吳興公車總站,松仁路95巷口,4527,25.02388,121.56984,25.03656,121.56866
捷運象山站(1號出口),泰和公園,1058,25.03295,121.56867,25.0193,121.57105
吳興公車總站,泰和公園,18378,25.02388,121.56984,25.0193,121.57105
松仁路121巷口,泰和公園,1388,25.03476,121.56865,25.0193,121.57105
合樂公園,雅祥公園(松信路50巷口),738,25.04843,121.58154,25.04732,121.57211
松山車站,福祥公園,4798,25.0489,121.57841,25.04626,121.57045
塔悠八德路口,松山車站,676,25.05009,121.57202,25.0489,121.57841
松山車站,永吉松信路口,7369,25.0489,121.57841,25.04548,121.57207
松山車站,雅祥公園(松信路50巷口),6343,25.0489,121.57841,25.04732,121.57211
松山車站,松山高中,1872,25.0489,121.57841,25.0433,121.5638
捷運永春站(2號出口),松山車站,6356,25.0405,121.57538,25.0489,121.57841
五常公園,捷運松山站(4號出口),651,25.04797,121.57432,25.04987,121.57785
三興國小,臺北南山廣場_1,1485,25.02969,121.55766,25.03404,121.56598
捷運台北101/世貿站(5號出口),松山高中,982,25.03338,121.56333,25.0433,121.5638
松山高中,臺北南山廣場_1,1361,25.0433,121.5638,25.03404,121.56598
基隆忠孝路口西南側,捷運信義安和站(1號出口),633,25.04108,121.5629,25.03331,121.55265
基隆忠孝路口西南側,捷運市政府站(3號出口),694,25.04108,121.5629,25.04084,121.56789
仁愛延吉街口,基隆忠孝路口西南側,2299,25.03748,121.55564,25.04108,121.5629
捷運後山埤站(2號出口),捷運松山站(4號出口),2451,25.04395,121.58184,25.04987,121.57785
捷運後山埤站(2號出口),福德國小公車站,6706,25.04395,121.58184,25.03929,121.58755
捷運後山埤站(2號出口),福德國小,25653,25.04395,121.58184,25.03846,121.58618
松山車站,虎林永吉路口,5274,25.0489,121.57841,25.04519,121.57712
捷運永春站(2號出口),虎林永吉路口,2953,25.0405,121.57538,25.04519,121.57712
永吉公園,興雅松仁路口,1214,25.04345,121.57539,25.0401,121.56822
基隆路一段101巷口,永吉公園,653,25.04516,121.56702,25.04345,121.57539
松山車站,永吉公園,4706,25.0489,121.57841,25.04345,121.57539
捷運市政府站(3號出口),永吉路321巷口,1237,25.04084,121.56789,25.04561,121.57549
捷運永春站(2號出口),永吉路321巷口,7329,25.0405,121.57538,25.04561,121.57549
捷運永春站(2號出口),松山永吉路口,1574,25.0405,121.57538,25.04623,121.57772
松仁路95巷口,松山路292巷口,630,25.03656,121.56866,25.0432,121.57789
捷運象山站(3號出口),興雅國中,3138,25.03295,121.5712,25.03616,121.56983
信義廣場(台北101),捷運象山站(3號出口),1481,25.03306,121.5662,25.03295,121.5712
捷運象山站(3號出口),春光公園,1113,25.03295,121.5712,25.0427,121.58112
春光公園,松德公園,943,25.0427,121.58112,25.03657,121.57349
松山車站,松德虎林街口,4199,25.0489,121.57841,25.0383,121.5762
捷運松山站(4號出口),松德虎林街口,924,25.04987,121.57785,25.0383,121.5762
捷運象山站(3號出口),松德虎林街口,7569,25.03295,121.5712,25.0383,121.5762
富台公園,松山高中,719,25.04185,121.57204,25.0433,121.5638
富台公園,捷運永春站(2號出口),2787,25.04185,121.57204,25.0405,121.57538
富台公園,捷運市政府站(3號出口),2587,25.04185,121.57204,25.04084,121.56789
富台公園,興雅松仁路口,1831,25.04185,121.57204,25.0401,121.56822
基隆路一段101巷口,松仁路95巷口,1059,25.04516,121.56702,25.03656,121.56866
基隆路一段101巷口,捷運永春站(2號出口),822,25.04516,121.56702,25.0405,121.57538
南京東興路口,基隆路一段101巷口,1388,25.05149,121.56535,25.04516,121.56702
捷運永春站(2號出口),松仁路95巷口,9986,25.0405,121.57538,25.03656,121.56866
捷運永春站(2號出口),興雅松仁路口,2504,25.0405,121.57538,25.0401,121.56822
捷運永春站(2號出口),捷運象山站(1號出口),894,25.0405,121.57538,25.03295,121.56867
捷運永春站(2號出口),松德站,8724,25.0405,121.57538,25.03162,121.57396
吳興街260巷,捷運麟光站(2號出口),715,25.02606,121.5631,25.0181,121.55929
吳興街260巷,捷運台北101/世貿站(2號出口),29919,25.02606,121.5631,25.0327,121.56157
吳興街260巷,臺北南山廣場_1,5615,25.02606,121.5631,25.03404,121.56598
捷運象山站(3號出口),松山家商(林口街),4486,25.03295,121.5712,25.03593,121.57906
捷運松山站(3號出口),松山家商(林口街),1183,25.04962,121.57746,25.03593,121.57906
仁愛延吉街口,信義基隆路口,1165,25.03748,121.55564,25.03321,121.55873
信義基隆路口,捷運國父紀念館站(2號出口),4522,25.03321,121.55873,25.04122,121.55745
三興國小,捷運台北101/世貿站(2號出口),10644,25.02969,121.55766,25.0327,121.56157
捷運後山埤站(2號出口),松仁路95巷口,973,25.04395,121.58184,25.03656,121.56866
基隆光復路口,松仁路95巷口,644,25.03005,121.55764,25.03656,121.56866
捷運象山站(3號出口),松仁路95巷口,11880,25.03295,121.5712,25.03656,121.56866
忠孝東路五段215巷口,松仁路95巷口,1565,25.0409,121.5705,25.03656,121.56866
松仁路95巷口,松德路200巷,2769,25.03656,121.56866,25.03471,121.57301
松仁路95巷口,松山高中,1511,25.03656,121.56866,25.0433,121.5638
捷運象山站(1號出口),松仁路95巷口,13974,25.03295,121.56867,25.03656,121.56866
捷運台北101/世貿站(3號出口),松仁路95巷口,726,25.03275,121.56337,25.03656,121.56866
松仁路95巷口,象山公園,4308,25.03656,121.56866,25.02863,121.56981
臨江街夜市(基隆路),臺北南山廣場_1,1617,25.02931,121.55721,25.03404,121.56598
三興公園,臺北南山廣場_1,1540,25.02868,121.55932,25.03404,121.56598
吳興公車總站,臺北南山廣場_1,2492,25.02388,121.56984,25.03404,121.56598
捷運信義安和站(4號出口),臺北南山廣場_1,2731,25.03305,121.55378,25.03404,121.56598
捷運台北101/世貿站(2號出口),景聯廣場,2619,25.0327,121.56157,25.03214,121.55974
南京東興路口,捷運市政府站(3號出口),1052,25.05149,121.56535,25.04084,121.56789
捷運市政府站(3號出口),捷運松山站(3號出口),1398,25.04084,121.56789,25.04962,121.57746
捷運市政府站(3號出口),興雅國中,1131,25.04084,121.56789,25.03616,121.56983
信義運動中心,捷運市政府站(3號出口),2437,25.03189,121.56678,25.04084,121.56789
捷運市政府站(3號出口),松仁路95巷口,12500,25.04084,121.56789,25.03656,121.56866
五常公園,捷運市政府站(3號出口),1292,25.04797,121.57432,25.04084,121.56789
捷運國父紀念館站(2號出口),捷運市政府站(3號出口),2087,25.04122,121.55745,25.04084,121.56789
捷運市政府站(3號出口),捷運忠孝敦化站(2號出口),771,25.04084,121.56789,25.04153,121.5524
吳興街394巷口,捷運象山站(2號出口),3782,25.02474,121.56741,25.03222,121.56974
忠孝東路五段215巷口,松仁路121巷口,995,25.0409,121.5705,25.03476,121.56865
捷運市政府站(4號出口),福祥公園,7134,25.04146,121.56731,25.04626,121.57045
吳興街284巷(廣安宮),捷運台北101/世貿站(2號出口),7087,25.02326,121.56329,25.0327,121.56157
克勤新村,捷運六張犁站,7661,25.02589,121.56073,25.02397,121.55266
德昌寶興街口(西北角),捷運龍山寺站(1號出口),3700,25.02365,121.49528,25.03535,121.49938
國興青年路口,青年公園3號出口,3730,25.02594,121.50651,25.02273,121.50271
國興青年路口,捷運古亭站(9號出口),609,25.02594,121.50651,25.02694,121.52224
復華花園新城,華江高中,2179,25.02964,121.50258,25.02744,121.49619
捷運龍山寺站(1號出口),西園艋舺路口,3641,25.03535,121.49938,25.03267,121.49757
德昌寶興街口(西北角),西園艋舺路口,1071,25.02365,121.49528,25.03267,121.49757
華江八號公園,萬華火車站(D2廣場),1084,25.03388,121.49293,25.03394,121.50117
大稻埕公園,開封西寧路口,635,25.05915,121.51033,25.04662,121.50717
開封西寧路口,陳天來故居,632,25.04662,121.50717,25.05601,121.50895
承德鄭州路口(市民高架下),開封西寧路口,1390,25.04879,121.51626,25.04662,121.50717
中華桂林路口,西本願寺廣場,26482,25.03771,121.50662,25.04099,121.50769
捷運北門站(3號出口),西本願寺廣場,3019,25.04991,121.5104,25.04099,121.50769
忠孝西重慶南路口,西本願寺廣場,2387,25.04724,121.51272,25.04099,121.50769
國家圖書館,西本願寺廣場,984,25.03763,121.51709,25.04099,121.50769
中華桂林路口,中華漢口街口,2579,25.03771,121.50662,25.04533,121.50944
中華桂林路口,華西公園,4923,25.03771,121.50662,25.03852,121.49881
中華桂林路口,萬華火車站,899,25.03771,121.50662,25.03364,121.50322
捷運龍山寺站(1號出口),長沙公園,1562,25.03535,121.49938,25.0417,121.49992
捷運龍山寺站(1號出口),華江國小,6297,25.03535,121.49938,25.03397,121.49029
中華桂林路口,龍山國小,668,25.03771,121.50662,25.0355,121.49541
捷運龍山寺站(1號出口),龍山國小,6440,25.03535,121.49938,25.0355,121.49541
捷運龍山寺站(1號出口)_1,萬華火車站(D2廣場),657,25.03548,121.50026,25.03394,121.50117
萬華266號綠地,開封西寧路口,1727,25.0403,121.50197,25.04662,121.50717
萬華266號綠地,萬華火車站(D2廣場),2359,25.0403,121.50197,25.03394,121.50117
中華桂林路口,萬華266號綠地,1885,25.03771,121.50662,25.0403,121.50197
捷運龍山寺站(1號出口),桂林昆明街口,1264,25.03535,121.49938,25.03811,121.50362
桂林昆明街口,華西公園,2072,25.03811,121.50362,25.03852,121.49881
桂林昆明街口,西本願寺廣場,3731,25.03811,121.50362,25.04099,121.50769
捷運龍山寺站(1號出口)_1,西園艋舺路口,646,25.03548,121.50026,25.03267,121.49757
捷運龍山寺站(1號出口)_1,聯合醫院和平院區,1389,25.03548,121.50026,25.03516,121.50641
德昌寶興街口(西北角),捷運龍山寺站(1號出口)_1,683,25.02365,121.49528,25.03548,121.50026
臺大小福樓東側,臺大農業陳列館北側,2967,25.01846,121.5376,25.01839,121.53404
臺大農業陳列館北側,臺灣科技大學側門,1360,25.01839,121.53404,25.01295,121.53973
臺大大一女舍北側,臺灣科技大學後門,3984,25.01547,121.53436,25.01182,121.54165
捷運公館站(3號出口),臺大小福樓東側,13614,25.01551,121.53374,25.01846,121.5376
臺大心理系館南側,臺大水源舍區A棟,651,25.01941,121.5404,25.01493,121.53044
臺大水源舍區B棟,臺大舊體育館西側,1003,25.01525,121.53009,25.0198,121.53583
捷運公館站(3號出口),臺大共同教室東南側,702,25.01551,121.53374,25.01566,121.53786
臺大鹿鳴堂東側,臺灣科技大學後門,3047,25.01511,121.53786,25.01182,121.54165
捷運公館站(2號出口),臺大第一活動中心西南側,16306,25.01491,121.53438,25.01761,121.53995
捷運士林站(1號出口),捷運線型公園(後街),13347,25.09561,121.52552,25.09812,121.52449
捷運芝山站(2號出口)_1,雨農國小,24815,25.10336,121.52263,25.1054,121.5295
捷運芝山站(2號出口)_1,芝山國小,23712,25.10336,121.52263,25.11044,121.53595
忠誠路一段138號,捷運芝山站(2號出口)_1,7444,25.10641,121.52944,25.10336,121.52263
捷運芝山站(2號出口)_1,蘭雅國小,18586,25.10336,121.52263,25.10775,121.52312
台北花木批發市場,興隆路2段203巷,621,25.00402,121.54074,25.00346,121.54709
捷運景美站(2號出口),萬和二號公園,2506,24.99366,121.54124,25.00154,121.5364
臺大大一女舍北側,臺大男六舍前,3583,25.01547,121.53436,25.01664,121.5452
南京遼寧街口,長春龍江路口,1675,25.05176,121.54217,25.05473,121.54026
復華花園新城,萬華火車站(D2廣場),2819,25.02964,121.50258,25.03394,121.50117
捷運科技大樓站,臺大博理館西側,3069,25.02605,121.5436,25.01922,121.54195
臺大新體育館東南側,臺大椰林小舖,4005,25.02112,121.53591,25.01561,121.53583
臺大新體育館東南側,臺大農業陳列館北側,1311,25.02112,121.53591,25.01839,121.53404
捷運公館站(3號出口),臺大一號館,854,25.01551,121.53374,25.01698,121.53455
臺大一號館,臺大小福樓東側,1389,25.01698,121.53455,25.01846,121.5376
捷運公館站(3號出口),臺大新生教室南側,5429,25.01551,121.53374,25.0196,121.53846
捷運公館站(3號出口),臺大新體育館東南側,14751,25.01551,121.53374,25.02112,121.53591
捷運科技大樓站,臺大明達館北側(員工宿舍),664,25.02605,121.5436,25.01816,121.54469
羅斯福路三段311號前,臺灣科技大學側門,3172,25.01717,121.53202,25.01295,121.53973
捷運公館站(2號出口),第二學生活動中心,3052,25.01491,121.53438,25.01244,121.53661
捷運公館站(2號出口),臺灣科技大學側門,80303,25.01491,121.53438,25.01295,121.53973
和平敦化路口,臥龍樂業街口,855,25.02444,121.54908,25.01856,121.55558
捷運忠孝復興站(2號出口),瑞安街208巷,1772,25.04035,121.5436,25.02979,121.54053
捷運忠孝敦化站(2號出口),臨江街夜市(通化街101巷口),1126,25.04153,121.5524,25.02952,121.55406
天和公園,天母棒球場,1930,25.12001,121.53342,25.11341,121.53195
和平重慶路口,捷運中正紀念堂站(3號出口),1650,25.02723,121.51659,25.03239,121.51866
捷運古亭站(6號出口),金華杭州南路口,3381,25.0276,121.52217,25.031,121.52211
光華商場,臺北科技大學(電機工程系),703,25.04478,121.53274,25.04196,121.53653
三張犁,市民廣場,1315,25.03452,121.5576,25.03599,121.56218
復興南路二段128巷口,捷運大安站(3號出口),16287,25.02861,121.54336,25.03328,121.5425
中崙高中,捷運南京三民站(3號出口),2306,25.04878,121.56087,25.05129,121.56426
寶清公園,捷運南京三民站(2號出口),911,25.05198,121.5681,25.05136,121.56283
平安新城,捷運南京三民站(1號出口),9963,25.05528,121.559,25.05155,121.5636
健安新城,捷運南京三民站(4號出口),3190,25.05606,121.56345,25.05152,121.5646
捷運南京三民站(4號出口),鵬程公園,4217,25.05152,121.5646,25.05503,121.56876
南京光復路口,民生活動中心,957,25.05143,121.55716,25.05907,121.56305
內政部營建署,臺北市藝文推廣處,1859,25.04769,121.5448,25.04826,121.55235
三民公園,民權運動公園,2005,25.06128675,121.566679,25.062,121.56019
景美運動公園,興福國中,870,25.00219,121.54454,25.00465,121.54916
國立政治大學,捷運動物園站,1371,24.98737,121.57726,24.99873,121.57985
文山運動中心,木柵公園,1048,24.99676,121.5596,24.98718,121.56059
捷運辛亥站,興隆路2段203巷,1032,25.00467,121.55684,25.00346,121.54709
捷運辛亥站,辛亥路四段77巷口,4025,25.00467,121.55684,25.00743,121.55877
捷運辛亥站,興豐公園,1180,25.00467,121.55684,24.99982,121.54761
捷運景美站(2號出口),興豐公園,2506,24.99366,121.54124,24.99982,121.54761
永安藝文館-表演36房,臺北市立景美女中,719,24.98414,121.56907,24.98058,121.55624
國立政治大學(萬壽路),捷運動物園站(2號出口),3231,24.98841,121.57649,24.99766,121.57875
捷運木柵站,敦南山林,1354,24.99798,121.57455,25.00264,121.5768
和平敦化路口,捷運六張犁站,5005,25.02444,121.54908,25.02397,121.55266
捷運龍山寺站(1號出口),萬華火車站(D2廣場),1243,25.03535,121.49938,25.03394,121.50117
國興青年路口,捷運龍山寺站(1號出口),1104,25.02594,121.50651,25.03535,121.49938
捷運北投站(1號出口),捷運奇岩站(三合街),3155,25.13258,121.49862,25.12634,121.50099
捷運民權西路站(2號出口),蔣渭水紀念公園,6679,25.06174,121.51969,25.06011,121.51729
和平臥龍街口,捷運科技大樓站,7652,25.024461,121.546705,25.02605,121.5436
捷運東門站(3號出口),金華公園,1571,25.03383,121.52815,25.02984,121.53107
吳興街260巷,泰和里民活動中心,1330,25.02606,121.5631,25.0213,121.57027
南機場夜市(中華路二段),大理高中,641,25.02886,121.50518,25.03124,121.49075
捷運葫洲站(1號出口),麗湖國小,1266,25.07249,121.60796,25.07332,121.60223
捷運芝山站(1號出口),蘭雅公園,11895,25.10225,121.52286,25.10991,121.53039
天母運動公園,蘭雅公園,2754,25.11633,121.53414,25.10991,121.53039
捷運忠孝新生站(4號出口),昌隆公園,2739,25.04239,121.53324,25.04448,121.53946
捷運南京三民站(4號出口),西松高中(健康路325巷),12582,25.05152,121.5646,25.05567,121.56713
捷運大橋頭站(2號出口),歸綏戲曲公園,3878,25.06314,121.51308,25.05805,121.51353
啟明學校,雨農國小,653,25.11742,121.53472,25.1054,121.5295
捷運古亭站(8號出口),臺灣師範大學(圖書館),1350,25.02701,121.52164,25.0266,121.52973
民族延平路口,重慶酒泉街口,711,25.06864,121.5107,25.07158,121.51368
國順公園,重慶酒泉街口,686,25.06594,121.51078,25.07158,121.51368
信義杭州路口,南昌公園,1317,25.0357,121.5241,25.02698,121.52081
大稻埕公園,捷運大橋頭站(1A出口),4039,25.05915,121.51033,25.06325,121.51162
圓環站,承德鄭州路口(市民高架下),2733,25.05369,121.51418,25.04879,121.51626
士林3號廣場,雨農國小,3618,25.10459,121.52417,25.1054,121.5295
士商路40巷口,捷運劍潭站(2號出口),1763,25.09013,121.52054,25.08388,121.52535
士林3號廣場,蘭雅公園,5509,25.10459,121.52417,25.10991,121.53039
和平金山路口,捷運古亭站(2號出口),1352,25.02669,121.52529,25.0255,121.52346
復興南路1段340巷口,龍門廣場,1184,25.03701,121.54348,25.04092,121.54825
捷運大直站(1號出口),樂群二敬業四路口,1698,25.0801,121.54708,25.07976,121.55813
三軍總醫院(松山分院),捷運南京三民站(1號出口),1504,25.05419,121.55631,25.05155,121.5636
捷運劍潭站(1號出口),百齡國小,5507,25.08577,121.52531,25.08521,121.51918
景聯廣場,興雅松仁路口,954,25.03214,121.55974,25.0401,121.56822
忠德公園,萬華火車站(D2廣場),1284,25.02516,121.49604,25.03394,121.50117
捷運科技大樓站,臺灣科技大學側門,1907,25.02605,121.5436,25.01295,121.53973
捷運公館站(3號出口),捷運科技大樓站,2809,25.01551,121.53374,25.02605,121.5436
捷運科技大樓站,敦親公園,19767,25.02605,121.5436,25.02347,121.54108
復興南路二段273號前,捷運科技大樓站,957,25.02565,121.54357,25.02605,121.5436
和平龍泉街口,復興南路二段273號前,993,25.02638,121.52971,25.02565,121.54357
和平公園東側,臺北市立圖書館(總館),801,25.02351,121.54282,25.02895,121.5379
復興南路二段280號前,捷運公館站(2號出口),851,25.02429,121.54328,25.01491,121.53438
捷運大安森林公園站(2號出口),新生南路三段66號前,660,25.03332,121.53435,25.01976,121.53384
新生南路三段66號前,臺灣科技大學後門,1357,25.01976,121.53384,25.01182,121.54165
捷運公館站(2號出口),新生南路三段82號前,2541,25.01491,121.53438,25.01894,121.53361
捷運公館站(3號出口),新生南路三段82號前,5278,25.01551,121.53374,25.01894,121.53361
捷運大安森林公園站(2號出口),新生南路三段82號前,814,25.03332,121.53435,25.01894,121.53361
羅斯福路三段311號前,臺灣科技大學後門,2924,25.01717,121.53202,25.01182,121.54165
大安運動中心停車場,捷運公館站(2號出口),1465,25.020348,121.546446,25.01491,121.53438
捷運臺電大樓站(2號出口),溫州停車場,1542,25.02021,121.52942,25.02093,121.5331
臺灣科技大學後門,銘傳國小側門,5765,25.01182,121.54165,25.01385,121.53549
捷運公館站(2號出口),臺大環研大樓,3307,25.01491,121.53438,25.01234,121.54503
捷運公館站(2號出口),臺灣科技大學後門,79878,25.01491,121.53438,25.01182,121.54165
捷運公館站(2號出口),臺大男六舍前,15030,25.01491,121.53438,25.01664,121.5452
基隆長興路口東側,捷運公館站(2號出口),11572,25.01727,121.54471,25.01491,121.53438
捷運公館站(2號出口),景美污水抽水站,980,25.01491,121.53438,25.01076,121.53637
捷運公館站(2號出口),臺大椰林小舖,649,25.01491,121.53438,25.01561,121.53583
捷運公館站(2號出口),金華公園,848,25.01491,121.53438,25.02984,121.53107
捷運公館站(2號出口),臥龍公園,768,25.01491,121.53438,25.01623,121.55037
捷運公館站(2號出口),敦化基隆路口,1586,25.01491,121.53438,25.02215,121.54839
捷運公館站(2號出口),臺大醫學院附設癌醫中心,9008,25.01491,121.53438,25.01426,121.54382
和平泰順街口,捷運公館站(2號出口),914,25.02621,121.53171,25.01491,121.53438
第二學生活動中心,臺灣科技大學後門,1955,25.01244,121.53661,25.01182,121.54165
捷運六張犁站,臺灣科技大學正門,679,25.02397,121.55266,25.01451,121.54142
捷運六張犁站,臺灣科技大學側門,1431,25.02397,121.55266,25.01295,121.53973
捷運公館站(3號出口),臺灣科技大學側門,9963,25.01551,121.53374,25.01295,121.53973
新生和平路口東北側,臺灣科技大學側門,1083,25.02657,121.53515,25.01295,121.53973
新生南路三段82號前,臺灣科技大學側門,2402,25.01894,121.53361,25.01295,121.53973
和平新生路口西南側,臺灣科技大學側門,1104,25.02598,121.53454,25.01295,121.53973
臺大大一女舍北側,臺灣科技大學側門,2532,25.01547,121.53436,25.01295,121.53973
臺灣科技大學側門,銘傳國小側門,3310,25.01295,121.53973,25.01385,121.53549
新生南路三段94巷口,臺灣科技大學側門,2335,25.01744,121.53334,25.01295,121.53973
新生南路三段66號前,臺灣科技大學側門,1260,25.01976,121.53384,25.01295,121.53973
公館公園,捷運公館站(2號出口),13489,25.01137,121.54062,25.01491,121.53438
新生南路三段94巷口,臺灣科技大學後門,3002,25.01744,121.53334,25.01182,121.54165
羅斯福路四段113巷19弄口,臺灣科技大學後門,1395,25.01027,121.53998,25.01182,121.54165
捷運萬隆站(1號出口),臺灣科技大學後門,778,25.00115,121.53916,25.01182,121.54165
捷運公館站(3號出口),臺灣科技大學後門,11700,25.01551,121.53374,25.01182,121.54165
嘉興公園,臺灣科技大學後門,2215,25.021,121.55211,25.01182,121.54165
新生和平路口東北側,臺灣科技大學後門,1370,25.02657,121.53515,25.01182,121.54165
台北花木批發市場,臺灣科技大學後門,2598,25.00402,121.54074,25.01182,121.54165
捷運公館站(2號出口),臺大動物醫院前,10654,25.01491,121.53438,25.01576,121.54291
臺大土木研究大樓前,辛亥復興路口西北側,856,25.01787,121.5476,25.02153,121.54299
捷運麟光站(2號出口),臥龍樂業街口,2158,25.0181,121.55929,25.01856,121.55558
嘉興公園,捷運信義安和站(4號出口),1369,25.021,121.55211,25.03305,121.55378
捷運六張犁站,景勤二號公園(西南側),1759,25.02397,121.55266,25.02605,121.5577
三興公園,捷運六張犁站,2001,25.02868,121.55932,25.02397,121.55266
吳興街260巷,捷運六張犁站,4594,25.02606,121.5631,25.02397,121.55266
捷運臺電大樓站(2號出口),辛亥新生路口西北側,9245,25.02021,121.52942,25.02267,121.5341
和平龍泉街口,捷運古亭站(5號出口),13812,25.02638,121.52971,25.02715,121.52293
和平龍泉街口,捷運臺電大樓站(2號出口),923,25.02638,121.52971,25.02021,121.52942
和平龍泉街口,捷運大安森林公園站(2號出口),3193,25.02638,121.52971,25.03332,121.53435
和平龍泉街口,復興南路二段128巷口,1042,25.02638,121.52971,25.02861,121.54336
和平泰順街口,金華公園,946,25.02621,121.53171,25.02984,121.53107
和平重慶路口,臺灣師範大學(圖書館),1480,25.02723,121.51659,25.0266,121.52973
捷運古亭站(6號出口),金甌女中,1799,25.0276,121.52217,25.03519,121.5245
和平泰順街口,捷運古亭站(5號出口),6707,25.02621,121.53171,25.02715,121.52293
捷運古亭站(5號出口),螢橋國小,1478,25.02715,121.52293,25.02609,121.51389
捷運東門站(5號出口),臺北市立圖書館(總館),5795,25.03363,121.52962,25.02895,121.5379
捷運大安森林公園站(2號出口),臺北市立圖書館(總館),7139,25.03332,121.53435,25.02895,121.5379
臺北市立圖書館(總館),金華公園,1068,25.02895,121.5379,25.02984,121.53107
信義路三段134巷口,臺北市立圖書館(總館),2562,25.03333,121.53968,25.02895,121.5379
大安運動中心,臺北市立圖書館(總館),798,25.02054,121.54561,25.02895,121.5379
捷運大安森林公園站(2號出口),新生和平路口東北側,25343,25.03332,121.53435,25.02657,121.53515
建國和平路口西北側,捷運忠孝復興站(2號出口),788,25.02606,121.53738,25.04035,121.5436
捷運東門站(3號出口),金甌女中,2761,25.03383,121.52815,25.03519,121.5245
捷運東門站(3號出口),捷運東門站(5號出口),1186,25.03383,121.52815,25.03363,121.52962
原臺北刑務所官舍,捷運東門站(3號出口),2100,25.03054,121.52466,25.03383,121.52815
捷運東門站(5號出口),金杭公園,1578,25.03363,121.52962,25.03325,121.52436
愛國金山路口,羅斯福寧波東街口,1608,25.03164,121.52661,25.03145,121.51941
和平金山路口,愛國金山路口,1197,25.02669,121.52529,25.03164,121.52661
幸安國小(仁愛路),復興南路1段340巷口,1354,25.03753,121.53523,25.03701,121.54348
建國濟南路口,捷運忠孝復興站(2號出口),3444,25.03935,121.53828,25.04035,121.5436
捷運信義安和站(1號出口),捷運忠孝復興站(2號出口),755,25.03331,121.55265,25.04035,121.5436
信義大安路口(信維大樓),捷運忠孝復興站(2號出口),883,25.03317,121.54639,25.04035,121.5436
捷運大安站(4號出口),捷運忠孝復興站(2號出口),1966,25.0332,121.5439,25.04035,121.5436
捷運大安站(6號出口),捷運忠孝復興站(2號出口),2000,25.03479,121.54376,25.04035,121.5436
信義路三段134巷口,捷運忠孝復興站(2號出口),2178,25.03333,121.53968,25.04035,121.5436
台北科技大學億光大樓,捷運忠孝復興站(2號出口),1999,25.04177,121.53833,25.04035,121.5436
捷運大安站(4號出口),敦化南路二段103巷口,5267,25.0332,121.5439,25.0287,121.54904
捷運信義安和站(1號出口),捷運大安站(4號出口),1657,25.03331,121.55265,25.0332,121.5439
信義大安路口(信維大樓),捷運信義安和站(2號出口),1224,25.03317,121.54639,25.03304,121.55171
仁愛敦南圓環(西北側),龍門廣場,4225,25.03827,121.54802,25.04092,121.54825
臨江街夜市(通化街101巷口),龍門廣場,755,25.02952,121.55406,25.04092,121.54825
仁愛延吉街口,龍門廣場,2339,25.03748,121.55564,25.04092,121.54825
信義敦化路口,臺北醫學大學,881,25.03333,121.54977,25.02668,121.56175
信義敦化路口,成功國宅,1993,25.03333,121.54977,25.02681,121.54668
捷運信義安和站(2號出口),龍門廣場,1094,25.03304,121.55171,25.04092,121.54825
捷運信義安和站(2號出口),捷運國父紀念館站(2號出口),790,25.03304,121.55171,25.04122,121.55745
捷運信義安和站(2號出口),捷運台北101/世貿站(2號出口),808,25.03304,121.55171,25.0327,121.56157
仁愛延吉街口,捷運信義安和站(2號出口),754,25.03748,121.55564,25.03304,121.55171
信義建國路口,捷運大安森林公園站(2號出口),1029,25.0328,121.53746,25.03332,121.53435
和平泰順街口,捷運大安森林公園站(2號出口),2157,25.02621,121.53171,25.03332,121.53435
光信公園(光復南路456巷),基隆忠孝路口西南側,798,25.03513,121.5561,25.04108,121.5629
光信公園(光復南路456巷),捷運信義安和站(1號出口),2428,25.03513,121.5561,25.03331,121.55265
建國南路一段279巷口,捷運忠孝復興站(2號出口),6031,25.03635,121.53833,25.04035,121.5436
建國南路一段279巷口,捷運大安站(2號出口),1369,25.03635,121.53833,25.03358,121.54141
建國南路一段279巷口,復興南路1段340巷口,1508,25.03635,121.53833,25.03701,121.54348
忠孝東路三段217巷口,捷運忠孝新生站(4號出口),3824,25.04176,121.54027,25.04239,121.53324
東豐公園,龍門廣場,891,25.03569,121.5451,25.04092,121.54825
中崙福成宮,捷運忠孝復興站(5號出口),1306,25.04524,121.54659,25.04262,121.54443
南京遼寧街口,捷運忠孝復興站(5號出口),1161,25.05176,121.54217,25.04262,121.54443
捷運忠孝敦化站(2號出口),臺北田徑場,703,25.04153,121.5524,25.04951,121.54941
捷運忠孝敦化站(2號出口),松山高中,1710,25.04153,121.5524,25.0433,121.5638
捷運國父紀念館站(2號出口),捷運忠孝敦化站(2號出口),1368,25.04122,121.55745,25.04153,121.5524
捷運忠孝敦化站(2號出口),捷運忠孝敦化站(7號出口),798,25.04153,121.5524,25.04159,121.54937
捷運大安森林公園站(5號出口),瑞安街208巷,4139,25.03336,121.5364,25.02979,121.54053
捷運科技大樓站,瑞安街208巷,2044,25.02605,121.5436,25.02979,121.54053
捷運大安站(3號出口),瑞安街208巷,3641,25.03328,121.5425,25.02979,121.54053
捷運國父紀念館站(2號出口),龍門廣場,1228,25.04122,121.55745,25.04092,121.54825
南京光復路口,捷運國父紀念館站(2號出口),1768,25.05143,121.55716,25.04122,121.55745
三興國小,捷運國父紀念館站(2號出口),1683,25.02969,121.55766,25.04122,121.55745
捷運國父紀念館站(2號出口),松山高中,3889,25.04122,121.55745,25.0433,121.5638
仁愛醫院,捷運忠孝復興站(2號出口),15434,25.03756,121.54587,25.04035,121.5436
仁愛醫院,捷運大安站(4號出口),2970,25.03756,121.54587,25.0332,121.5439
捷運信義安和站(4號出口),捷運忠孝敦化站(7號出口),1158,25.03305,121.55378,25.04159,121.54937
捷運信義安和站(4號出口),捷運忠孝敦化站(2號出口),1611,25.03305,121.55378,25.04153,121.5524
捷運信義安和站(4號出口),捷運六張犁站,2059,25.03305,121.55378,25.02397,121.55266
光復信義路口東南側,捷運信義安和站(4號出口),9665,25.03281,121.55756,25.03305,121.55378
信義大安路口(信維大樓),捷運信義安和站(4號出口),2233,25.03317,121.54639,25.03305,121.55378
捷運信義安和站(4號出口),捷運台北101/世貿站(2號出口),2236,25.03305,121.55378,25.0327,121.56157
捷運信義安和站(4號出口),樂利路21巷口,3568,25.03305,121.55378,25.0277,121.55132
捷運信義安和站(4號出口),捷運國父紀念館站(2號出口),4854,25.03305,121.55378,25.04122,121.55745
嘉興街175巷口,捷運信義安和站(4號出口),3033,25.02811,121.55671,25.03305,121.55378
捷運信義安和站(4號出口),捷運東門站(5號出口),1001,25.03305,121.55378,25.03363,121.52962
基隆光復路口,捷運信義安和站(4號出口),3353,25.03005,121.55764,25.03305,121.55378
和平敦化路口,捷運信義安和站(4號出口),918,25.02444,121.54908,25.03305,121.55378
成功國宅,捷運大安站(4號出口),3788,25.02681,121.54668,25.0332,121.5439
成功國宅,捷運大安站(3號出口),3469,25.02681,121.54668,25.03328,121.5425
仁愛延吉街口,捷運市政府站(3號出口),755,25.03748,121.55564,25.04084,121.56789
三張犁,仁愛延吉街口,1544,25.03452,121.5576,25.03748,121.55564
仁愛延吉街口,捷運信義安和站(4號出口),2879,25.03748,121.55564,25.03305,121.55378
捷運信義安和站(1號出口),敦化南路二段103巷口,2687,25.03331,121.55265,25.0287,121.54904
信義延吉街口,捷運信義安和站(1號出口),3635,25.03318,121.55725,25.03331,121.55265
捷運科技大樓站,敦化南路二段103巷口,2393,25.02605,121.5436,25.0287,121.54904
捷運信義安和站(2號出口),敦化南路二段103巷口,13434,25.03304,121.55171,25.0287,121.54904
信義敦化路口,復興南路二段128巷口,1537,25.03333,121.54977,25.02861,121.54336
復興南路二段128巷口,捷運信義安和站(4號出口),910,25.02861,121.54336,25.03305,121.55378
復興南路二段128巷口,捷運科技大樓站,2244,25.02861,121.54336,25.02605,121.5436
和平東建國南路口,成功國宅,672,25.02575,121.5377,25.02681,121.54668
南京遼寧街口,復興南路一段126巷口,1195,25.05176,121.54217,25.04311,121.54313
捷運大安森林公園站(2號出口),捷運東門站(5號出口),2304,25.03332,121.53435,25.03363,121.52962
捷運東門站(5號出口),新生和平路口東北側,5367,25.03363,121.52962,25.02657,121.53515
和平龍泉街口,捷運東門站(5號出口),10474,25.02638,121.52971,25.03363,121.52962
捷運東門站(5號出口),新生南路一段119巷口,1573,25.03363,121.52962,25.04003,121.53299
捷運公館站(3號出口),辛亥新生路口西北側,1057,25.01551,121.53374,25.02267,121.5341
捷運公館站(3號出口),臺北市立圖書館(總館),1920,25.01551,121.53374,25.02895,121.5379
台北花木批發市場,捷運公館站(3號出口),1129,25.00402,121.54074,25.01551,121.53374
捷運公館站(3號出口),臺灣師範大學(圖書館),1496,25.01551,121.53374,25.0266,121.52973
捷運港墘站(2號出口),文德三號公園(江南街71巷16弄),7857,25.07967,121.57584,25.07524,121.5772
捷運國父紀念館站(1號出口),捷運小巨蛋站(5號出口),658,25.04205,121.55657,25.05176,121.55352
仁愛安和路口,捷運忠孝復興站(2號出口),1046,25.03754,121.55285,25.04035,121.5436
捷運信義安和站(4號出口),臨江街夜市(基隆路),7614,25.03305,121.55378,25.02931,121.55721
光復南路22巷口,捷運南京三民站(2號出口),2176,25.04693,121.55771,25.05136,121.56283
捷運市政府站(3號出口),雅祥公園(松信路50巷口),1962,25.04084,121.56789,25.04732,121.57211
天母棒球場,東山路110巷口,652,25.11341,121.53195,25.11306,121.53945
建國長春路口,捷運松江南京站(7號出口),8625,25.05469,121.53686,25.05246,121.5332
捷運中山國小站(2號出口),永盛公園(民生東路一段23巷),2720,25.06246,121.52705,25.05873,121.52488
捷運中山國小站(2號出口),民權吉林路口(南側),1594,25.06246,121.52705,25.06245,121.53043
捷運行天宮站(3號出口),濱江果菜市場,2642,25.05992,121.5333,25.06807,121.53673
捷運南京復興站(7號出口),興安合江路口,1128,25.05278,121.54478,25.05619,121.53949
捷運松山站(4號出口),行善路25巷口,1241,25.04987,121.57785,25.05707,121.57658
捷運明德站(3號出口),榮華二明德路口,13452,25.11,121.51841,25.11357,121.52255
中山天母路口,天母棒球場,1955,25.11856,121.52964,25.11341,121.53195
捷運南京復興站(7號出口),臺北市藝文推廣處,1155,25.05278,121.54478,25.04826,121.55235
捷運松山站(3號出口),捷運永春站(2號出口),3523,25.04962,121.57746,25.0405,121.57538
捷運後山埤站(1號出口),福德國小,4952,25.04437,121.58133,25.03846,121.58618
松仁路253巷3弄,松仁路95巷口,3574,25.02678,121.56884,25.03656,121.56866
捷運松山站(4號出口),西松高中(健康路325巷),691,25.04987,121.57785,25.05567,121.56713
捷運龍山寺站(1號出口),捷運龍山寺站(1號出口)_1,1431,25.03535,121.49938,25.03548,121.50026
忠孝東路三段217巷口,捷運忠孝復興站(2號出口),1272,25.04176,121.54027,25.04035,121.5436
忠孝東路三段217巷口,捷運忠孝敦化站(2號出口),723,25.04176,121.54027,25.04153,121.5524
新生南路三段94巷口,臺大小福樓東側,1158,25.01744,121.53334,25.01846,121.5376
捷運麟光站(2號出口),臥龍街195巷口,2704,25.0181,121.55929,25.01783,121.55224
捷運大安森林公園站(2號出口),敦親公園,2015,25.03332,121.53435,25.02347,121.54108
大安運動中心,捷運公館站(2號出口),1223,25.02054,121.54561,25.01491,121.53438
市民敦化路口,臺北田徑場,1257,25.04464,121.54944,25.04951,121.54941
內政部營建署,忠孝東路四段49巷口,743,25.04769,121.5448,25.04172,121.54541
市民復興路口(東南側),捷運忠孝復興站(2號出口),1010,25.04472,121.54401,25.04035,121.5436
和平新生路口西南側,新生南路三段94巷口,1262,25.02598,121.53454,25.01744,121.53334
和平新生路口西南側,捷運公館站(2號出口),1269,25.02598,121.53454,25.01491,121.53438
和平新生路口西南側,臺灣科技大學後門,1153,25.02598,121.53454,25.01182,121.54165
和平新生路口西南側,捷運公館站(3號出口),1613,25.02598,121.53454,25.01551,121.53374
信義路三段134巷口,成功國宅,771,25.03333,121.53968,25.02681,121.54668
捷運忠孝敦化站(7號出口),臺北遠企購物中心,919,25.04159,121.54937,25.02709,121.54902
捷運大安站(3號出口),捷運忠孝復興站(2號出口),3383,25.03328,121.5425,25.04035,121.5436
捷運臺電大樓站(2號出口)_1,羅斯福路三段311號前,2358,25.02055,121.52855,25.01717,121.53202
大安高工,敦化南路二段81巷,704,25.03126,121.54339,25.03002,121.54893
原臺北刑務所官舍,捷運東門站(5號出口),1680,25.03054,121.52466,25.03363,121.52962
捷運國父紀念館站(1號出口),松智松壽路口,609,25.04205,121.55657,25.03607,121.56535
光復南路22巷口,捷運國父紀念館站(1號出口),10904,25.04693,121.55771,25.04205,121.55657
捷運大安站(5號出口),敦化基隆路口,745,25.03303,121.54372,25.02215,121.54839
捷運大安站(5號出口),捷運科技大樓站,3543,25.03303,121.54372,25.02605,121.5436
延平國宅,捷運圓山站(2號出口),6757,25.07894,121.51121,25.07182,121.51929
捷運圓山站(1號出口),民族延平路口,3025,25.07133,121.52024,25.06864,121.5107
民族延平路口,民權延平路口(西北側),1634,25.06864,121.5107,25.06326,121.51099
捷運圓山站(2號出口),重慶酒泉街口,18919,25.07182,121.51929,25.07158,121.51368
捷運大橋頭站(2號出口),重慶酒泉街口,7897,25.06314,121.51308,25.07158,121.51368
捷運民權西路站(2號出口),樹德公園,1428,25.06174,121.51969,25.06647,121.5165
太原廣場,陳天來故居,1302,25.04925,121.51468,25.05601,121.50895
捷運圓山站(2號出口),臺北孔廟,33594,25.07182,121.51929,25.07378,121.51583
捷運圓山站(1號出口),臺北孔廟,10497,25.07133,121.52024,25.07378,121.51583
捷運圓山站(1號出口),林森德惠街口,6158,25.07133,121.52024,25.06688,121.5257
中山農安街口,捷運圓山站(1號出口),3495,25.0651,121.5224,25.07133,121.52024
捷運圓山站(1號出口),重慶民族路口,4014,25.07133,121.52024,25.06853,121.51359
捷運圓山站(1號出口),迪化休閒運動公園,1486,25.07133,121.52024,25.07491,121.5115
捷運大橋頭站(2號出口),酒泉延平路口,2790,25.06314,121.51308,25.0722,121.51057
捷運圓山站(1號出口),重慶國中,4189,25.07133,121.52024,25.07567,121.51862
捷運圓山站(2號出口),重慶國中,13919,25.07182,121.51929,25.07567,121.51862
捷運大橋頭站(1A出口),民權迪化街口,1417,25.06325,121.51162,25.06327,121.50943
捷運大橋頭站(2號出口),民權迪化街口,1859,25.06314,121.51308,25.06327,121.50943
大稻埕公園,太原廣場,1829,25.05915,121.51033,25.04925,121.51468
圓環站,大稻埕公園,664,25.05369,121.51418,25.05915,121.51033
大龍老人住宅,捷運圓山站(1號出口),3602,25.06853,121.51729,25.07133,121.52024
大稻埕公園,捷運大橋頭站(2號出口),3828,25.05915,121.51033,25.06314,121.51308
捷運大橋頭站(2號出口),重慶保安街口(家樂福重慶店),3581,25.06314,121.51308,25.05918,121.51373
國順公園,捷運大橋頭站(1A出口),3664,25.06594,121.51078,25.06325,121.51162
捷運大橋頭站(1A出口),民族延平路口,7373,25.06325,121.51162,25.06864,121.5107
圓山線形公園,捷運雙連站(2號出口),739,25.06867,121.51993,25.05826,121.52063
捷運雙連站(2號出口),臺北轉運站(華陰街),3119,25.05826,121.52063,25.04937,121.51914
大稻埕碼頭,捷運雙連站(2號出口),2546,25.05662,121.50783,25.05826,121.52063
台泥大樓,捷運雙連站(2號出口),1692,25.06142,121.52305,25.05826,121.52063
捷運雙連站(2號出口),重慶保安街口(家樂福重慶店),6003,25.05826,121.52063,25.05918,121.51373
大龍公園,捷運雙連站(2號出口),970,25.07049,121.51596,25.05826,121.52063
捷運北門站(3號出口),永樂市場,29066,25.04991,121.5104,25.05454,121.51052
中山堂,捷運北門站(3號出口),1345,25.04412,121.51025,25.04991,121.5104
圓環站,捷運北門站(3號出口),3728,25.05369,121.51418,25.04991,121.5104
捷運北門站(3號出口),開封西寧路口,6888,25.04991,121.5104,25.04662,121.50717
承德鄭州路口(市民高架下),捷運北門站(3號出口),919,25.04879,121.51626,25.04991,121.5104
捷運北門站(3號出口),陳天來故居,7998,25.04991,121.5104,25.05601,121.50895
捷運北門站(3號出口),臺北市電影主題公園(康定路),695,25.04991,121.5104,25.04551,121.50318
承德鄭州路口(市民高架下),朝陽公園,1192,25.04879,121.51626,25.05592,121.51367
忠孝西重慶南路口,永樂市場,1903,25.04724,121.51272,25.05454,121.51052
捷運大橋頭站(2號出口),永樂市場,4285,25.06314,121.51308,25.05454,121.51052
太原廣場,永樂市場,5938,25.04925,121.51468,25.05454,121.51052
捷運中山站(5號出口),永樂市場,6625,25.05296,121.51938,25.05454,121.51052
永樂市場,開封西寧路口,2122,25.05454,121.51052,25.04662,121.50717
圓環站,捷運臺大醫院站(4號出口),770,25.05369,121.51418,25.04297,121.51643
圓環站,捷運中山站(5號出口),16676,25.05369,121.51418,25.05296,121.51938
圓環站,永盛公園(民生東路一段23巷),674,25.05369,121.51418,25.05873,121.52488
圓環站,太原廣場,7751,25.05369,121.51418,25.04925,121.51468
圓環站,忠孝西重慶南路口,3693,25.05369,121.51418,25.04724,121.51272
南京新生路口,圓環站,668,25.05194,121.52766,25.05369,121.51418
捷運大橋頭站(2號出口),重慶民族路口,18213,25.06314,121.51308,25.06853,121.51359
捷運雙連站(2號出口),重慶民族路口,2093,25.05826,121.52063,25.06853,121.51359
大龍峒社會住宅,承德路三段8巷口,1255,25.0708,121.51826,25.06407,121.51822
大同16號廣場,太原廣場,657,25.05658,121.50826,25.04925,121.51468
捷運中山站(2號出口),蔣渭水紀念公園,617,25.05228,121.52176,25.06011,121.51729
大稻埕碼頭,捷運北門站(3號出口),9311,25.05662,121.50783,25.04991,121.5104
承德民權路口,樹德公園_1,2168,25.06247,121.51839,25.06669,121.51615
南京太原路口,林森長春路口,1045,25.05366,121.51638,25.05497,121.52536
南京太原路口,捷運中山站(5號出口),12442,25.05366,121.51638,25.05296,121.51938
南京太原路口,林森公園,735,25.05366,121.51638,25.05223,121.52581
承德民生西路口,重慶保安街口(家樂福重慶店),917,25.05756,121.51828,25.05918,121.51373
太原五原路口,捷運雙連站(2號出口),3663,25.05646,121.51698,25.05826,121.52063
太原五原路口,永盛公園(民生東路一段23巷),1232,25.05646,121.51698,25.05873,121.52488
中山北路二段59巷口,臺北轉運站(華陰街),1469,25.05606,121.5229,25.04937,121.51914
中山徐州路口,臺北轉運站(華陰街),673,25.04178,121.51907,25.04937,121.51914
捷運民權西路站(3號出口),蔣渭水紀念公園,2618,25.06129,121.52021,25.06011,121.51729
太原五原路口,捷運中山站(5號出口),5692,25.05646,121.51698,25.05296,121.51938
永樂市場,重慶長安路口,1415,25.05454,121.51052,25.0515,121.51398
承德昌吉街口,捷運圓山站(2號出口),681,25.06587,121.51847,25.07182,121.51929
捷運圓山站(2號出口),葫蘆國小,1296,25.07182,121.51929,25.08254,121.5075
大龍峒社會住宅,樹德公園_1,946,25.0708,121.51826,25.06669,121.51615
承德鄭州路口(市民高架下),永樂市場,2246,25.04879,121.51626,25.05454,121.51052
延平涼州街口,捷運北門站(3號出口),636,25.06092,121.51126,25.04991,121.5104
劍潭抽水站,承德劍潭路口,2084,25.08128,121.51784,25.0841,121.52341
捷運士林站(2號出口),福港街停車場,1264,25.09343,121.52642,25.08695,121.51901
百齡國小,百齡高中,2470,25.08521,121.51918,25.08736,121.52272
中正基河路口,百齡國小,2442,25.0933,121.51962,25.08521,121.51918
劍潭基河路口,百齡國小,7656,25.08403,121.5249,25.08521,121.51918
前港公園(福德宮),百齡國小,652,25.08671,121.52096,25.08521,121.51918
中山天母路口,聖山綠地,646,25.11856,121.52964,25.10696,121.53234
中山天母路口,士林3號廣場,2314,25.11856,121.52964,25.10459,121.52417
中山天母路口,臺北市立大學(天母校區),1604,25.11856,121.52964,25.11356,121.53718
忠誠路二段53巷,捷運芝山站(2號出口)_1,14487,25.11127,121.53244,25.10336,121.52263
中山天母路口,蘭興公園,4855,25.11856,121.52964,25.11184,121.52589
捷運芝山站(1號出口),蘭興公園,5835,25.10225,121.52286,25.11184,121.52589
德行公園,蘭興公園,2797,25.10585,121.52376,25.11184,121.52589
劍潭海外青年活動中心,捷運劍潭站(2號出口),8270,25.07994,121.52426,25.08388,121.52535
忠誠路一段173巷口,文林福華路口,624,25.10813,121.5304,25.10094,121.52243
捷運芝山站(1號出口),雨農國小,24499,25.10225,121.52286,25.1054,121.5295
忠誠公園,雨農國小,2090,25.10399,121.52593,25.1054,121.5295
士林運動中心,華齡公園,1874,25.08911,121.52154,25.08302,121.52069
捷運劍潭站(1號出口),百齡高中,3883,25.08577,121.52531,25.08736,121.52272
天母棒球場,捷運芝山站(2號出口),812,25.11341,121.53195,25.10364,121.52219
捷運劍潭站(2號出口),臺北市立天文館,969,25.08388,121.52535,25.09598,121.51776
捷運劍潭站(2號出口),通河街76巷/承德路四段10巷口,20546,25.08388,121.52535,25.08019,121.5202
士林運動中心,捷運劍潭站(2號出口),5627,25.08911,121.52154,25.08388,121.52535
捷運劍潭站(2號出口),福港街停車場,21576,25.08388,121.52535,25.08695,121.51901
劍潭抽水站,捷運劍潭站(2號出口),10780,25.08128,121.51784,25.08388,121.52535
劍潭基河路口,劍潭海外青年活動中心,1244,25.08403,121.5249,25.07994,121.52426
前港公園(前港街),劍潭基河路口,1757,25.0848,121.52125,25.08403,121.5249
劍潭基河路口,劍潭海外青年活動中心_1,1112,25.08403,121.5249,25.0796,121.5237
劍潭基河路口,華齡公園,1953,25.08403,121.5249,25.08302,121.52069
劍潭基河路口,士林新天地,2739,25.08403,121.5249,25.08899,121.51751
志成公園,捷運士林站(2號出口),7458,25.09667,121.53206,25.09343,121.52642
士林新天地,士林運動中心,2292,25.08899,121.51751,25.08911,121.52154
基河文林路口,士林運動中心,9771,25.08637,121.5247,25.08911,121.52154
劍潭基河路口,士林運動中心,1505,25.08403,121.5249,25.08911,121.52154
士林運動中心,福港街停車場,1083,25.08911,121.52154,25.08695,121.51901
士林運動中心,通河街76巷/承德路四段10巷口,1152,25.08911,121.52154,25.08019,121.5202
士林運動中心,百齡國小,3936,25.08911,121.52154,25.08521,121.51918
兒童新樂園,捷運士林站(1號出口),2263,25.09631,121.51449,25.09561,121.52552
捷運劍潭站(1號出口),臺北市立天文館,2387,25.08577,121.52531,25.09598,121.51776
捷運士林站(2號出口),臺北市立天文館,6172,25.09343,121.52642,25.09598,121.51776
泰北高中,福林公園,1128,25.09763,121.53402,25.09419,121.52833
捷運士林站(2號出口),福林公園(中正路),4939,25.09343,121.52642,25.09609,121.53006
兒童新樂園,捷運士林站(2號出口),1934,25.09631,121.51449,25.09343,121.52642
士林高商,捷運士林站(2號出口),3962,25.09435,121.51702,25.09343,121.52642
捷運芝山站(2號出口)_1,蘭雅公園,38664,25.10336,121.52263,25.10991,121.53039
捷運芝山站(1號出口),至誠公園,830,25.10225,121.52286,25.10143,121.53585
延平北中正路口,社子公園,859,25.08678,121.50948,25.0902,121.50622
士林3號廣場,天母運動公園,1393,25.10459,121.52417,25.11633,121.53414
士林3號廣場,聖山綠地,2251,25.10459,121.52417,25.10696,121.53234
忠誠路一段138號,芝山國小,787,25.10641,121.52944,25.11044,121.53595
忠誠路一段138號,蘭雅公園,1451,25.10641,121.52944,25.10991,121.53039
士林新天地,百齡國小,1936,25.08899,121.51751,25.08521,121.51918
中正基河路口,捷運士林站(2號出口),7572,25.0933,121.51962,25.09343,121.52642
福林公園(中正路),至善臨溪路口,2887,25.09609,121.53006,25.09709,121.54229
市立圖書館葫蘆堵分館,捷運大橋頭站(2號出口),851,25.08217,121.51074,25.06314,121.51308
捷運芝山站(1號出口),至誠雨聲街口,8276,25.10225,121.52286,25.10199,121.52927
基河文林路口,百齡國小,1122,25.08637,121.5247,25.08521,121.51918
士林新天地,捷運劍潭站(1號出口),7427,25.08899,121.51751,25.08577,121.52531
德行公園,聖山綠地,658,25.10585,121.52376,25.10696,121.53234
天母運動公園,捷運芝山站(2號出口)_1,7400,25.11633,121.53414,25.10336,121.52263
捷運芝山站(2號出口)_1,聯合醫院陽明院區,2306,25.10336,121.52263,25.10455,121.53195
捷運芝山站(2號出口)_1,臺北市立大學(天母校區),8201,25.10336,121.52263,25.11356,121.53718
士東路91巷口,捷運芝山站(2號出口)_1,15958,25.11247,121.52914,25.10336,121.52263
士商路40巷口,捷運劍潭站(1號出口),5721,25.09013,121.52054,25.08577,121.52531
中山天母路口,士東路91巷口,2104,25.11856,121.52964,25.11247,121.52914
士東路91巷口,捷運明德站(3號出口),851,25.11247,121.52914,25.11,121.51841
台北花木批發市場,捷運公館站(2號出口),1584,25.00402,121.54074,25.01491,121.53438
捷運萬隆站(4號出口),萬和二號公園,5246,25.0027,121.53861,25.00154,121.5364
捷運萬隆站(1號出口),景仁公園_1,10874,25.00115,121.53916,24.9966,121.5403
捷運萬隆站(2號出口),興豐公園,4347,25.00144,121.53983,24.99982,121.54761
捷運萬隆站(1號出口),景仁公園,1773,25.00115,121.53916,24.99621,121.54043
捷運松山站(3號出口),松山路292巷口,3160,25.04962,121.57746,25.0432,121.57789
捷運善導寺站(1號出口),林森長春路口,1800,25.04527,121.5222,25.05497,121.52536
安和路二段181巷口,捷運信義安和站(4號出口),2741,25.02721,121.54988,25.03305,121.55378
南港車站(興華路),東新國小,9603,25.05343,121.60633,25.05507,121.6028
六福公園,捷運南港展覽館站(5號出口),3273,25.04681,121.61703,25.05469,121.61669
大興光明路2巷口,大豐公園,3883,25.13043,121.50017,25.13102,121.50408
臺大一號館,臺大第一活動中心西南側,3068,25.01698,121.53455,25.01761,121.53995
信義建國路口,復興南路二段128巷口,1355,25.0328,121.53746,25.02861,121.54336
中華桂林路口,捷運西門站(5號出口),1454,25.03771,121.50662,25.04244,121.50864
捷運景美站(2號出口),木柵光輝路口,731,24.99366,121.54124,24.98816,121.55528
捷運雙連站(2號出口),林森長春路口,4639,25.05826,121.52063,25.05497,121.52536
捷運象山站(1號出口),臺北醫學大學,683,25.03295,121.56867,25.02668,121.56175
捷運東門站(5號出口),金華公園,29447,25.03363,121.52962,25.02984,121.53107
捷運臺大醫院站(4號出口),龍興里活動中心,777,25.04297,121.51643,25.02815,121.51108
建國和平路口西北側,金華公園,1506,25.02606,121.53738,25.02984,121.53107
松仁路253巷3弄,泰和公園,2460,25.02678,121.56884,25.0193,121.57105
捷運南京復興站(1號出口),興安合江路口,5478,25.05253,121.54256,25.05619,121.53949
信義路三段134巷口,和平新生路口西南側,789,25.03333,121.53968,25.02598,121.53454
志成公園,捷運士林站(1號出口),7368,25.09667,121.53206,25.09561,121.52552
捷運士林站(1號出口),至善臨溪路口,4034,25.09561,121.52552,25.09709,121.54229
南京光復路口,敦化南京路口(東北側),2459,25.05143,121.55716,25.05226,121.54926
臺大大一女舍北側,臺大天文數學館南側,1897,25.01547,121.53436,25.02108,121.53783
光復信義路口東南側,松智松壽路口,802,25.03281,121.55756,25.03607,121.56535
捷運中山站(2號出口),捷運雙連站(2號出口),3278,25.05228,121.52176,25.05826,121.52063
捷運台北101/世貿站(2號出口),松高路(信義新天地A4館),695,25.0327,121.56157,25.03918,121.56654
和平龍泉街口,捷運東門站(3號出口),1276,25.02638,121.52971,25.03383,121.52815
捷運西湖站(2號出口),樂群二敬業四路口,847,25.08205,121.56716,25.07976,121.55813
仁愛延吉街口,臺北南山廣場_1,1263,25.03748,121.55564,25.03404,121.56598
南機場夜市(中華路二段),西園公園,710,25.02886,121.50518,25.0271,121.49775
捷運松山站(4號出口),雅祥公園(松信路50巷口),1493,25.04987,121.57785,25.04732,121.57211
大理高中,寶興長泰街口(西南角),946,25.03124,121.49075,25.0216,121.49597
寶興長泰街口(西南角),萬大路486巷口,927,25.0216,121.49597,25.01975,121.4973
寶興長泰街口(西南角),德昌街10巷口,1072,25.0216,121.49597,25.02533,121.4996
寶興長泰街口(西南角),捷運龍山寺站(1號出口)_1,601,25.0216,121.49597,25.03548,121.50026
寶興長泰街口(西南角),捷運龍山寺站(1號出口),2120,25.0216,121.49597,25.03535,121.49938
華中疏散門,萬大路486巷口,610,25.01688,121.49534,25.01975,121.4973
東園國小,萬大路486巷口,730,25.02257,121.49807,25.01975,121.4973
萬大路486巷口,錦德公園,1331,25.01975,121.4973,25.02332,121.49264
國興中華路口,國興青年路口,668,25.02485,121.50898,25.02594,121.50651
南機場夜市(中華路二段),國興中華路口,1464,25.02886,121.50518,25.02485,121.50898
古亭國中,捷運古亭站(9號出口),968,25.02442,121.5107,25.02694,121.52224
南昌公園,古亭國中,1729,25.02698,121.52081,25.02442,121.5107
古亭國中,萬華火車站(D2廣場),731,25.02442,121.5107,25.03394,121.50117
古亭國中,青年公園3號出口,786,25.02442,121.5107,25.02273,121.50271
古亭國中,萬華青年公宅,759,25.02442,121.5107,25.02021,121.50376
青年公園3號出口,青年公園高爾夫球場,980,25.02273,121.50271,25.02481,121.50755
南海和平路口西南側,國興青年路口,1060,25.03024,121.50904,25.02594,121.50651
國興青年路口,西本願寺廣場,690,25.02594,121.50651,25.04099,121.50769
國興青年路口,捷運中正紀念堂站(3號出口),616,25.02594,121.50651,25.03239,121.51866
中華桂林路口,國興青年路口,958,25.03771,121.50662,25.02594,121.50651
國興青年路口,青年路152巷口,967,25.02594,121.50651,25.01979,121.5009
南機場夜市(中華路二段),國興青年路口,1269,25.02886,121.50518,25.02594,121.50651
三張犁,臺北醫學大學,1393,25.03452,121.5576,25.02668,121.56175
松智松壽路口,臺北醫學大學,1338,25.03607,121.56535,25.02668,121.56175
臺北南山廣場_1,臺北醫學大學,5838,25.03404,121.56598,25.02668,121.56175
信義廣場(台北101),臺北醫學大學,8857,25.03306,121.5662,25.02668,121.56175
臥龍樂業街口,臺北醫學大學,1172,25.01856,121.55558,25.02668,121.56175
三興國小,臺北醫學大學,3684,25.02969,121.55766,25.02668,121.56175
基隆路二段159巷口,臺北醫學大學,2636,25.02561,121.55409,25.02668,121.56175
捷運麟光站(2號出口),臺北醫學大學,2128,25.0181,121.55929,25.02668,121.56175
松仁路95巷口,臺北醫學大學,1974,25.03656,121.56866,25.02668,121.56175
松高路(信義新天地A4館),臺北醫學大學,1102,25.03918,121.56654,25.02668,121.56175
捷運市政府站(3號出口),臺北醫學大學,3226,25.04084,121.56789,25.02668,121.56175
捷運台北101/世貿站(3號出口),臺北醫學大學,9974,25.03275,121.56337,25.02668,121.56175
景勤二號公園,臺北醫學大學,2245,25.02698,121.55841,25.02668,121.56175
吳興街284巷36弄口,臺北醫學大學,919,25.02236,121.56268,25.02668,121.56175
捷運國父紀念館站(2號出口),臺北醫學大學,738,25.04122,121.55745,25.02668,121.56175
臨江街夜市(通化街101巷口),臺北醫學大學,1547,25.02952,121.55406,25.02668,121.56175
景聯廣場,臺北醫學大學,2100,25.03214,121.55974,25.02668,121.56175
嘉興公園,臺北醫學大學,3776,25.021,121.55211,25.02668,121.56175
松仁路121巷口,臺北醫學大學,1430,25.03476,121.56865,25.02668,121.56175
景勤二號公園(西南側),臺北醫學大學,1673,25.02605,121.5577,25.02668,121.56175
喬治工商,臺北醫學大學,2860,25.02705,121.55551,25.02668,121.56175
三興公園,捷運台北101/世貿站(3號出口),1565,25.02868,121.55932,25.03275,121.56337
三興公園,象山公園,750,25.02868,121.55932,25.02863,121.56981
三興公園,市府松高路口,770,25.02868,121.55932,25.03899,121.56369
三興公園,捷運國父紀念館站(2號出口),642,25.02868,121.55932,25.04122,121.55745
捷運象山站(2號出口),松德站,11632,25.03222,121.56974,25.03162,121.57396
捷運象山站(3號出口),松德站,13011,25.03295,121.5712,25.03162,121.57396
松德站,松德虎林街口,1549,25.03162,121.57396,25.0383,121.5762
松仁路121巷口,松德站,1621,25.03476,121.56865,25.03162,121.57396
松仁路95巷口,松德站,1540,25.03656,121.56866,25.03162,121.57396
信義運動中心,松德站,637,25.03189,121.56678,25.03162,121.57396
捷運市政府站(3號出口),松德站,1152,25.04084,121.56789,25.03162,121.57396
信義廣場(台北101),松德站,2351,25.03306,121.5662,25.03162,121.57396
松德站,林口公園,1156,25.03162,121.57396,25.03894,121.57915
中全公園,松德站,990,25.0382,121.57495,25.03162,121.57396
松德站,興雅松仁路口,644,25.03162,121.57396,25.0401,121.56822
捷運象山站(2號出口),松仁路95巷口,1266,25.03222,121.56974,25.03656,121.56866
捷運象山站(2號出口),興雅松仁路口,1805,25.03222,121.56974,25.0401,121.56822
吳興街260巷,捷運象山站(2號出口),1500,25.02606,121.5631,25.03222,121.56974
捷運象山站(2號出口),泰和里民活動中心,6244,25.03222,121.56974,25.0213,121.57027
信義運動中心,捷運象山站(2號出口),1980,25.03189,121.56678,25.03222,121.56974
捷運象山站(2號出口),松仁路305號,4249,25.03222,121.56974,25.02306,121.57036
信義松德路口,捷運象山站(2號出口),5166,25.03322,121.57433,25.03222,121.56974
捷運象山站(2號出口),臺北醫學大學,615,25.03222,121.56974,25.02668,121.56175
捷運永春站(2號出口),象山公園,1218,25.0405,121.57538,25.02863,121.56981
興雅松仁路口,象山公園,4793,25.0401,121.56822,25.02863,121.56981
吳興街260巷,象山公園,1307,25.02606,121.5631,25.02863,121.56981
捷運象山站(3號出口),象山公園,721,25.03295,121.5712,25.02863,121.56981
松勤莊敬路口,象山公園,713,25.03203,121.5615,25.02863,121.56981
松仁路121巷口,象山公園,3763,25.03476,121.56865,25.02863,121.56981
捷運信義安和站(4號出口),象山公園,778,25.03305,121.55378,25.02863,121.56981
泰和公園,象山公園,2715,25.0193,121.57105,25.02863,121.56981
台北市災害應變中心,象山公園,1466,25.02868,121.56672,25.02863,121.56981
吳興公車總站,象山公園,4227,25.02388,121.56984,25.02863,121.56981
松仁路305號,象山公園,826,25.02306,121.57036,25.02863,121.56981
松仁路253巷3弄,象山公園,1467,25.02678,121.56884,25.02863,121.56981
泰和里民活動中心,象山公園,1267,25.0213,121.57027,25.02863,121.56981
捷運市政府站(3號出口),松仁路253巷3弄,2976,25.04084,121.56789,25.02678,121.56884
信義運動中心,松仁路253巷3弄,931,25.03189,121.56678,25.02678,121.56884
信義廣場(台北101),松仁路253巷3弄,2514,25.03306,121.5662,25.02678,121.56884
吳興公車總站,松仁路253巷3弄,913,25.02388,121.56984,25.02678,121.56884
松仁路253巷3弄,興雅松仁路口,3476,25.02678,121.56884,25.0401,121.56822
松仁路253巷3弄,臺北南山廣場_1,1745,25.02678,121.56884,25.03404,121.56598
吳興街284巷(廣安宮),松仁路253巷3弄,608,25.02326,121.56329,25.02678,121.56884
捷運永春站(2號出口),興雅國中,1799,25.0405,121.57538,25.03616,121.56983
松德路200巷,興雅國中,1143,25.03471,121.57301,25.03616,121.56983
中全公園,興雅國中,753,25.0382,121.57495,25.03616,121.56983
永吉松信路口,興雅國中,641,25.04548,121.57207,25.03616,121.56983
吳興公車總站,興雅國中,641,25.02388,121.56984,25.03616,121.56983
捷運象山站(1號出口),興雅國中,1052,25.03295,121.56867,25.03616,121.56983
吳興街260巷,捷運象山站(1號出口),1118,25.02606,121.5631,25.03295,121.56867
捷運象山站(1號出口),興雅松仁路口,1320,25.03295,121.56867,25.0401,121.56822
捷運市政府站(3號出口),捷運象山站(1號出口),1686,25.04084,121.56789,25.03295,121.56867
捷運象山站(1號出口),永吉松信路口,720,25.03295,121.56867,25.04548,121.57207
捷運象山站(1號出口),松仁路121巷口,2027,25.03295,121.56867,25.03476,121.56865
台北市災害應變中心,捷運象山站(1號出口),2012,25.02868,121.56672,25.03295,121.56867
捷運象山站(1號出口),松德路200巷,615,25.03295,121.56867,25.03471,121.57301
捷運象山站(1號出口),松德虎林街口,769,25.03295,121.56867,25.0383,121.5762
捷運象山站(3號出口),松德路200巷,14559,25.03295,121.5712,25.03471,121.57301
松德路200巷,林口公園,1091,25.03471,121.57301,25.03894,121.57915
中全公園,松德路200巷,2200,25.0382,121.57495,25.03471,121.57301
松仁路121巷口,松德路200巷,4269,25.03476,121.56865,25.03471,121.57301
松德虎林街口,松德路200巷,2672,25.0383,121.5762,25.03471,121.57301
信義廣場(台北101),松德路200巷,2457,25.03306,121.5662,25.03471,121.57301
捷運信義安和站(2號出口),立人國小,7627,25.03304,121.55171,25.02974,121.55146
和平東路二段18巷口,捷運臺電大樓站(2號出口),6034,25.02268,121.53608,25.02021,121.52942
和平東路二段18巷口,捷運公館站(3號出口),2173,25.02268,121.53608,25.01551,121.53374
和平東路二段18巷口,捷運大安森林公園站(2號出口),1599,25.02268,121.53608,25.03332,121.53435
和平東路二段18巷口,捷運大安森林公園站(5號出口),2134,25.02268,121.53608,25.03336,121.5364
和平東路二段18巷口,捷運公館站(2號出口),1265,25.02268,121.53608,25.01491,121.53438
和平復興路口西北側,捷運大安站(5號出口),998,25.02543,121.54332,25.03303,121.54372
仁愛醫院,捷運大安站(5號出口),850,25.03756,121.54587,25.03303,121.54372
復興南路二段128巷口,捷運大安站(5號出口),6346,25.02861,121.54336,25.03303,121.54372
捷運大安站(5號出口),捷運忠孝復興站(2號出口),1069,25.03303,121.54372,25.04035,121.5436
信義路三段134巷口,捷運大安站(5號出口),1119,25.03333,121.53968,25.03303,121.54372
捷運大安站(5號出口),瑞安街208巷,3257,25.03303,121.54372,25.02979,121.54053
信義敦化路口,捷運大安站(5號出口),1130,25.03333,121.54977,25.03303,121.54372
捷運信義安和站(2號出口),捷運大安站(5號出口),742,25.03304,121.55171,25.03303,121.54372
捷運六張犁站,臨江公園,2381,25.02397,121.55266,25.02832,121.55592
捷運信義安和站(4號出口),臨江公園,6398,25.03305,121.55378,25.02832,121.55592
延平國宅,重慶國中,916,25.07894,121.51121,25.07567,121.51862
延平國宅,捷運大橋頭站(2號出口),933,25.07894,121.51121,25.06314,121.51308
大龍峒社會住宅,延平國宅,689,25.0708,121.51826,25.07894,121.51121
延平國宅,迪化休閒運動公園,744,25.07894,121.51121,25.07491,121.5115
延平國宅,重慶酒泉街口,931,25.07894,121.51121,25.07158,121.51368
捷運圓山站(2號出口),臺北市立圖書館大同分館,8886,25.07182,121.51929,25.0741,121.51349
捷運圓山站(1號出口),臺北市立圖書館大同分館,4814,25.07133,121.52024,25.0741,121.51349
臺北市立圖書館大同分館,重慶民族路口,999,25.0741,121.51349,25.06853,121.51359
捷運大橋頭站(2號出口),臺北市立圖書館大同分館,2449,25.06314,121.51308,25.0741,121.51349
大龍峒社會住宅,臺北市立圖書館大同分館,1263,25.0708,121.51826,25.0741,121.51349
合昌宮,捷運圓山站(1號出口),1140,25.07717,121.50934,25.07133,121.52024
合昌宮,捷運圓山站(2號出口),1906,25.07717,121.50934,25.07182,121.51929
捷運大橋頭站(2號出口),民族延平路口,8505,25.06314,121.51308,25.06864,121.5107
大稻埕碼頭,民族延平路口,960,25.05662,121.50783,25.06864,121.5107
市立圖書館葫蘆堵分館,民族延平路口,671,25.08217,121.51074,25.06864,121.5107
大龍峒社會住宅,民族延平路口,626,25.0708,121.51826,25.06864,121.5107
承德路三段8巷口,民族延平路口,619,25.06407,121.51822,25.06864,121.5107
捷運雙連站(2號出口),民族延平路口,858,25.05826,121.52063,25.06864,121.5107
捷運圓山站(2號出口),民族延平路口,2249,25.07182,121.51929,25.06864,121.5107
樹德公園_1,重慶酒泉街口,903,25.06669,121.51615,25.07158,121.51368
大同運動中心,重慶酒泉街口,1112,25.06496,121.51608,25.07158,121.51368
捷運圓山站(1號出口),重慶酒泉街口,4617,25.07133,121.52024,25.07158,121.51368
大龍峒社會住宅,重慶酒泉街口,1678,25.0708,121.51826,25.07158,121.51368
市立圖書館葫蘆堵分館,重慶酒泉街口,688,25.08217,121.51074,25.07158,121.51368
捷運圓山站(1號出口),樹德公園,1670,25.07133,121.52024,25.06647,121.5165
捷運大橋頭站(2號出口),樹德公園,1124,25.06314,121.51308,25.06647,121.5165
承德路三段8巷口,樹德公園,1560,25.06407,121.51822,25.06647,121.5165
捷運雙連站(2號出口),陳天來故居,1380,25.05826,121.52063,25.05601,121.50895
捷運大橋頭站(2號出口),陳天來故居,735,25.06314,121.51308,25.05601,121.50895
捷運大橋頭站(1A出口),陳天來故居,891,25.06325,121.51162,25.05601,121.50895
臺北孔廟,臺北市立美術館_1,1053,25.07378,121.51583,25.07063,121.52327
延平國宅,臺北孔廟,1411,25.07894,121.51121,25.07378,121.51583
臺北孔廟,重慶保安街口(家樂福重慶店),674,25.07378,121.51583,25.05918,121.51373
大同運動中心,臺北孔廟,1655,25.06496,121.51608,25.07378,121.51583
樹德公園_1,臺北孔廟,1676,25.06669,121.51615,25.07378,121.51583
捷運大橋頭站(2號出口),臺北孔廟,881,25.06314,121.51308,25.07378,121.51583
圓山線形公園,捷運圓山站(1號出口),1087,25.06867,121.51993,25.07133,121.52024
台北數位產業園區,捷運圓山站(1號出口),6525,25.07447,121.52003,25.07133,121.52024
捷運圓山站(1號出口),捷運雙連站(2號出口),1347,25.07133,121.52024,25.05826,121.52063
大龍公園,捷運圓山站(1號出口),8481,25.07049,121.51596,25.07133,121.52024
捷運圓山站(1號出口),新生濱江街口(東南側),2707,25.07133,121.52024,25.07059,121.52812
捷運圓山站(1號出口),林安泰古厝,2494,25.07133,121.52024,25.07154,121.53058
捷運圓山站(1號出口),民族松江路口,1149,25.07133,121.52024,25.06833,121.5328
捷運圓山站(1號出口),酒泉延平路口,3321,25.07133,121.52024,25.0722,121.51057
捷運圓山站(1號出口),臺北市立美術館_1,4817,25.07133,121.52024,25.07063,121.52327
市立圖書館葫蘆堵分館,捷運圓山站(1號出口),1826,25.08217,121.51074,25.07133,121.52024
捷運圓山站(1號出口),民族林森路口,9898,25.07133,121.52024,25.06847,121.52559
捷運圓山站(1號出口),農安雙城街口,1946,25.07133,121.52024,25.06491,121.52449
捷運圓山站(1號出口),濱江果菜市場,862,25.07133,121.52024,25.06807,121.53673
捷運圓山站(1號出口),林森農安街口,1729,25.07133,121.52024,25.06531,121.52565
捷運圓山站(1號出口),撫順公園,1660,25.07133,121.52024,25.06416,121.52203
大同運動中心,捷運圓山站(1號出口),1068,25.06496,121.51608,25.07133,121.52024
捷運圓山站(1號出口),重慶北路三段383巷口,4030,25.07133,121.52024,25.07598,121.51409
台泥大樓,捷運圓山站(1號出口),791,25.06142,121.52305,25.07133,121.52024
承德昌吉街口,捷運圓山站(1號出口),1511,25.06587,121.51847,25.07133,121.52024
吉林路407巷口,捷運圓山站(1號出口),608,25.06595,121.53041,25.07133,121.52024
捷運圓山站(1號出口),捷運民權西路站(3號出口),747,25.07133,121.52024,25.06129,121.52021
捷運圓山站(1號出口),民族玉門街口,655,25.07133,121.52024,25.06873,121.52003
捷運圓山站(1號出口),第二果菜批發市場,998,25.07133,121.52024,25.06642,121.53735
民權延平路口(西北側),酒泉延平路口,677,25.06326,121.51099,25.0722,121.51057
大龍峒社會住宅,酒泉延平路口,733,25.0708,121.51826,25.0722,121.51057
捷運圓山站(2號出口),酒泉延平路口,12492,25.07182,121.51929,25.0722,121.51057
市立圖書館葫蘆堵分館,重慶國中,665,25.08217,121.51074,25.07567,121.51862
捷運圓山站(2號出口),重慶北路三段383巷口,7034,25.07182,121.51929,25.07598,121.51409
台北數位產業園區,捷運圓山站(2號出口),4639,25.07447,121.52003,25.07182,121.51929
台北數位產業園區,林森長春路口,615,25.07447,121.52003,25.05497,121.52536
大稻埕碼頭,民權延平路口(西北側),1266,25.05662,121.50783,25.06326,121.51099
民權延平路口(西北側),永樂市場,1232,25.06326,121.51099,25.05454,121.51052
大稻埕公園,民權延平路口(西北側),1191,25.05915,121.51033,25.06326,121.51099
撫順公園,民權迪化街口,825,25.06416,121.52203,25.06327,121.50943
民權迪化街口,重慶保安街口(家樂福重慶店),893,25.06327,121.50943,25.05918,121.51373
民權迪化街口,永樂市場,1498,25.06327,121.50943,25.05454,121.51052
大稻埕公園,捷運雙連站(2號出口),2231,25.05915,121.51033,25.05826,121.52063
大稻埕公園,捷運北門站(3號出口),4760,25.05915,121.51033,25.04991,121.5104
大稻埕公園,捷運中山站(5號出口),1330,25.05915,121.51033,25.05296,121.51938
大稻埕公園,重慶保安街口(家樂福重慶店),766,25.05915,121.51033,25.05918,121.51373
大稻埕公園,捷運中山站(2號出口),698,25.05915,121.51033,25.05228,121.52176
大龍老人住宅,承德路三段8巷口,676,25.06853,121.51729,25.06407,121.51822
中山農安街口,大龍峒社會住宅,690,25.0651,121.5224,25.0708,121.51826
大龍峒社會住宅,臺北孔廟,1440,25.0708,121.51826,25.07378,121.51583
大龍峒社會住宅,捷運圓山站(1號出口),872,25.0708,121.51826,25.07133,121.52024
大同運動中心,捷運大橋頭站(2號出口),2066,25.06496,121.51608,25.06314,121.51308
捷運大橋頭站(2號出口),捷運雙連站(2號出口),922,25.06314,121.51308,25.05826,121.52063
捷運大橋頭站(2號出口),樹德公園_1,3505,25.06314,121.51308,25.06669,121.51615
國順公園,捷運大橋頭站(2號出口),1896,25.06594,121.51078,25.06314,121.51308
捷運大橋頭站(2號出口),朝陽公園,1741,25.06314,121.51308,25.05592,121.51367
圓環站,捷運大橋頭站(2號出口),2065,25.05369,121.51418,25.06314,121.51308
延平涼州街口,捷運大橋頭站(2號出口),951,25.06092,121.51126,25.06314,121.51308
捷運大橋頭站(2號出口),重慶涼州街口,1428,25.06314,121.51308,25.06054,121.51338
寧夏涼州街口,捷運大橋頭站(2號出口),624,25.06095,121.51428,25.06314,121.51308
大龍公園,捷運大橋頭站(2號出口),851,25.07049,121.51596,25.06314,121.51308
捷運大橋頭站(1A出口),重慶民族路口,918,25.06325,121.51162,25.06853,121.51359
捷運大橋頭站(1A出口),重慶保安街口(家樂福重慶店),910,25.06325,121.51162,25.05918,121.51373
捷運大橋頭站(1A出口),永樂市場,3690,25.06325,121.51162,25.05454,121.51052
捷運大橋頭站(1A出口),酒泉延平路口,1985,25.06325,121.51162,25.0722,121.51057
捷運民權西路站(2號出口),重慶保安街口(家樂福重慶店),2629,25.06174,121.51969,25.05918,121.51373
大同運動中心,捷運民權西路站(2號出口),3134,25.06496,121.51608,25.06174,121.51969
捷運民權西路站(2號出口),撫順公園,824,25.06174,121.51969,25.06416,121.52203
中山農安街口,捷運民權西路站(2號出口),2167,25.0651,121.5224,25.06174,121.51969
捷運民權西路站(2號出口),農安雙城街口,881,25.06174,121.51969,25.06491,121.52449
中全公園,信義廣場(台北101),1022,25.0382,121.57495,25.03306,121.5662
中全公園,臺北南山廣場_1,895,25.0382,121.57495,25.03404,121.56598
中全公園,松山車站,2040,25.0382,121.57495,25.0489,121.57841
中全公園,松仁路95巷口,3701,25.0382,121.57495,25.03656,121.56866
中全公園,松德公園,859,25.0382,121.57495,25.03657,121.57349
中全公園,興雅松仁路口,957,25.0382,121.57495,25.0401,121.56822
中全公園,永吉松信路口,836,25.0382,121.57495,25.04548,121.57207
中全公園,信義運動中心,798,25.0382,121.57495,25.03189,121.56678
台北市災害應變中心,捷運台北101/世貿站(3號出口),14657,25.02868,121.56672,25.03275,121.56337
台北市災害應變中心,捷運六張犁站,1546,25.02868,121.56672,25.02397,121.55266
台北市災害應變中心,捷運市政府站(3號出口),6919,25.02868,121.56672,25.04084,121.56789
台北市災害應變中心,吳興街260巷,2468,25.02868,121.56672,25.02606,121.5631
信義廣場(台北101),台北市災害應變中心,8704,25.03306,121.5662,25.02868,121.56672
台北市災害應變中心,吳興街284巷(廣安宮),882,25.02868,121.56672,25.02326,121.56329
台北市災害應變中心,松仁路95巷口,6132,25.02868,121.56672,25.03656,121.56866
台北市災害應變中心,松高路(信義新天地A4館),1118,25.02868,121.56672,25.03918,121.56654
信義基隆路口,台北市災害應變中心,602,25.03321,121.55873,25.02868,121.56672
台北市災害應變中心,捷運國父紀念館站(2號出口),670,25.02868,121.56672,25.04122,121.55745
台北市災害應變中心,景新公園,1209,25.02868,121.56672,25.03003,121.56287
台北市災害應變中心,捷運台北101/世貿站(2號出口),7921,25.02868,121.56672,25.0327,121.56157
信義運動中心,台北市災害應變中心,2416,25.03189,121.56678,25.02868,121.56672
台北市災害應變中心,捷運永春站(2號出口),1611,25.02868,121.56672,25.0405,121.57538
台北市災害應變中心,吳興公車總站,2324,25.02868,121.56672,25.02388,121.56984
台北市災害應變中心,泰和公園,2898,25.02868,121.56672,25.0193,121.57105
台北市災害應變中心,景聯廣場,1259,25.02868,121.56672,25.03214,121.55974
台北市災害應變中心,松智松壽路口,3002,25.02868,121.56672,25.03607,121.56535
台北市災害應變中心,嘉興街175巷口,1210,25.02868,121.56672,25.02811,121.55671
台北市災害應變中心,松仁路253巷3弄,781,25.02868,121.56672,25.02678,121.56884
台北市災害應變中心,松德虎林街口,611,25.02868,121.56672,25.0383,121.5762
信義運動中心,捷運台北101/世貿站(3號出口),1842,25.03189,121.56678,25.03275,121.56337
信義運動中心,興雅松仁路口,2909,25.03189,121.56678,25.0401,121.56822
信義運動中心,吳興街284巷(廣安宮),824,25.03189,121.56678,25.02326,121.56329
信義運動中心,景聯廣場,2964,25.03189,121.56678,25.03214,121.55974
林森公園,農安雙城街口,809,25.05223,121.52581,25.06491,121.52449
捷運中山站(2號出口),林森公園,3302,25.05228,121.52176,25.05223,121.52581
捷運臺北車站(M2出口),林森公園,787,25.04821,121.51903,25.05223,121.52581
捷運松江南京站(7號出口),林森公園,2610,25.05246,121.5332,25.05223,121.52581
一江公園,林森公園,980,25.05316,121.53146,25.05223,121.52581
朱崙商場,林森公園,849,25.04762,121.54043,25.05223,121.52581
南京遼寧街口,林森公園,760,25.05176,121.54217,25.05223,121.52581
光華商場,林森公園,859,25.04478,121.53274,25.05223,121.52581
捷運中山站(5號出口),林森公園,1492,25.05296,121.51938,25.05223,121.52581
南京建國路口,林森公園,1141,25.05214,121.5368,25.05223,121.52581
新興公園,林森公園,1159,25.06157,121.52439,25.05223,121.52581
圓環站,林森公園,635,25.05369,121.51418,25.05223,121.52581
林森公園,林森農安街口,1006,25.05223,121.52581,25.06531,121.52565
林森公園,林森長春路口,2633,25.05223,121.52581,25.05497,121.52536
林森公園,永盛公園(民生東路一段23巷),2729,25.05223,121.52581,25.05873,121.52488
捷運中山國小站(2號出口),林森公園,797,25.06246,121.52705,25.05223,121.52581
捷運雙連站(2號出口),林森公園,1030,25.05826,121.52063,25.05223,121.52581
復華公園,朱崙商場,706,25.05339,121.5401,25.04762,121.54043
復華公園,捷運南京復興站(8號出口),696,25.05339,121.5401,25.05196,121.5433
復華公園,捷運松江南京站(7號出口),1003,25.05339,121.5401,25.05246,121.5332
捷運中山國小站(4號出口),新生民族路口(西南側),4559,25.06283,121.52697,25.06819,121.52767
捷運南京復興站(1號出口),江寧公園,705,25.05253,121.54256,25.0614,121.53929
國立臺北大學(臺北校區),捷運南京復興站(1號出口),3834,25.05794,121.54244,25.05253,121.54256
捷運南京復興站(1號出口),長春龍江路口,1429,25.05253,121.54256,25.05473,121.54026
八德市場(北側),捷運忠孝新生站(4號出口),4732,25.04478,121.53661,25.04239,121.53324
南京伊通街口,龍江朱崙街口,994,25.05189,121.53517,25.05004,121.54043
朱崙商場,龍江朱崙街口,1044,25.04762,121.54043,25.05004,121.54043
南京遼寧街口,龍江朱崙街口,2631,25.05176,121.54217,25.05004,121.54043
捷運南京復興站(8號出口),民生復興路口,3446,25.05196,121.5433,25.05764,121.54443
復興市民路口,捷運南京復興站(8號出口),1232,25.04585,121.54375,25.05196,121.5433
南京伊通街口,捷運南京復興站(8號出口),846,25.05189,121.53517,25.05196,121.5433
捷運南京復興站(8號出口),朱崙商場,1676,25.05196,121.5433,25.04762,121.54043
捷運南京復興站(8號出口),興安華城,4702,25.05196,121.5433,25.05606,121.54175
捷運中山國中站,捷運南京復興站(8號出口),2567,25.06106,121.54406,25.05196,121.5433
南京建國路口,捷運南京復興站(8號出口),3071,25.05214,121.5368,25.05196,121.5433
捷運南京復興站(8號出口),長春路258巷2弄口,1419,25.05196,121.5433,25.05427,121.53896
捷運南京復興站(8號出口),長寧大廈社區(南側),1140,25.05196,121.5433,25.05418,121.54332
信義敦化路口,捷運信義安和站(4號出口),3414,25.03333,121.54977,25.03305,121.55378
捷運中山國中站,民權建國路口(南側),3769,25.06106,121.54406,25.06228,121.53702
南京建國路口,民權建國路口(南側),762,25.05214,121.5368,25.06228,121.53702
民權建國路口(南側),民權龍江路口,938,25.06228,121.53702,25.06225,121.54107
中山公民會館,林森德惠街口,803,25.06185,121.5226,25.06688,121.5257
捷運雙連站(2號出口),林森德惠街口,658,25.05826,121.52063,25.06688,121.5257
捷運中山國小站(4號出口),林森德惠街口,6827,25.06283,121.52697,25.06688,121.5257
林森德惠街口,農安雙城街口,912,25.06688,121.5257,25.06491,121.52449
林森德惠街口,民族玉門街口,1083,25.06688,121.5257,25.06873,121.52003
捷運忠孝新生站(1號出口),新生北路一段62巷口,929,25.04272,121.53207,25.04699,121.53075
捷運松江南京站(8號出口),新生長春路口(東北側),2046,25.05215,121.53276,25.05532,121.52769
捷運劍南路站(1號出口),臺北市立圖書館大直分館,730,25.08519,121.55498,25.08152,121.54646
九華公園,捷運劍南路站(1號出口),4485,25.08844,121.56122,25.08519,121.55498
捷運劍南路站(1號出口),文湖國小,19111,25.08519,121.55498,25.08637,121.56088
敬業三樂群三路口(西北側),臺北市立圖書館大直分館,1121,25.08272,121.55624,25.08152,121.54646
敬業三樂群三路口(西北側),洲子二號公園,673,25.08272,121.55624,25.07932,121.56869
敬業三樂群三路口(西北側),樂群二明水路口,1388,25.08272,121.55624,25.08009,121.55226
北安大直街口,敬業三樂群三路口(西北側),612,25.08474,121.54968,25.08272,121.55624
南京遼寧街口,長春路258巷2弄口,1047,25.05176,121.54217,25.05427,121.53896
捷運松江南京站(7號出口),長春路258巷2弄口,3882,25.05246,121.5332,25.05427,121.53896
建國五常街口,捷運行天宮站(3號出口),8173,25.06419,121.53732,25.05992,121.5333
建國五常街口,江寧公園,807,25.06419,121.53732,25.0614,121.53929
建國五常街口,捷運中山國中站,6669,25.06419,121.53732,25.06106,121.54406
中山北路二段62巷口,林森公園,714,25.05676,121.52268,25.05223,121.52581
捷運劍南路站(2號出口),文湖街21巷118弄口,6174,25.08401,121.55535,25.09122,121.55961
捷運西湖站(1號出口),文湖街21巷118弄口,1171,25.08301,121.56638,25.09122,121.55961
洲子一號公園,濱江國小游泳池,641,25.07977,121.56454,25.07818,121.56175
樂群二敬業四路口,洲子一號公園,1270,25.07976,121.55813,25.07977,121.56454
捷運西湖站(2號出口),洲子一號公園,4258,25.08205,121.56716,25.07977,121.56454
文湖國小,文湖街21巷118弄口,3732,25.08637,121.56088,25.09122,121.55961
捷運劍南路站(2號出口),文湖國小,31434,25.08401,121.55535,25.08637,121.56088
捷運西湖站(1號出口),文湖國小,3606,25.08301,121.56638,25.08637,121.56088
北安大直街口,文湖國小,1740,25.08474,121.54968,25.08637,121.56088
文湖國小,環山路二段26巷口,707,25.08637,121.56088,25.08598,121.572
文湖國小,樂群二明水路口,692,25.08637,121.56088,25.08009,121.55226
德明財經科技大學,文湖國小,1698,25.08637,121.56574,25.08637,121.56088
捷運劍南路站(1號出口),文湖街81巷10號西側,1397,25.08519,121.55498,25.08707,121.56406
德明財經科技大學,捷運西湖站(1號出口),18085,25.08637,121.56574,25.08301,121.56638
德明財經科技大學,洲子二號公園,1576,25.08637,121.56574,25.07932,121.56869
德明財經科技大學,樂群二敬業四路口,876,25.08637,121.56574,25.07976,121.55813
德明財經科技大學,捷運港墘站(2號出口),867,25.08637,121.56574,25.07967,121.57584
捷運港墘站(1號出口),麗山國小,2857,25.08004,121.57568,25.0826,121.57158
文湖國小,麗山國小,1122,25.08637,121.56088,25.0826,121.57158
捷運劍南路站(2號出口),麗山國小,659,25.08401,121.55535,25.0826,121.57158
捷運港墘站(2號出口),麗山國小,927,25.07967,121.57584,25.0826,121.57158
南門國中,捷運西門站(3號出口),1133,25.03543,121.50834,25.04178,121.50869
南門國中,捷運臺大醫院站(4號出口),798,25.03543,121.50834,25.04297,121.51643
南門國中,莒光和平路口,687,25.03543,121.50834,25.03132,121.50745
南門國中,國家圖書館,620,25.03543,121.50834,25.03763,121.51709
南門國中,莒光大埔街口,2034,25.03543,121.50834,25.03132,121.50519
南機場夜市(中華路二段),南門國中,1641,25.02886,121.50518,25.03543,121.50834
捷運小南門站(2號出口),龍山國中,2301,25.03567,121.51006,25.03646,121.50492
復華花園新城,捷運小南門站(2號出口),876,25.02964,121.50258,25.03567,121.51006
捷運小南門站(2號出口),莒光和平路口,2541,25.03567,121.51006,25.03132,121.50745
捷運小南門站(2號出口),聯合醫院和平院區,3192,25.03567,121.51006,25.03516,121.50641
南門國中,捷運小南門站(2號出口),1475,25.03543,121.50834,25.03567,121.51006
捷運小南門站(2號出口),莒光大埔街口,1891,25.03567,121.51006,25.03132,121.50519
南海和平路口西南側,捷運小南門站(2號出口),2197,25.03024,121.50904,25.03567,121.51006
中華桂林路口,捷運小南門站(2號出口),867,25.03771,121.50662,25.03567,121.51006
中華貴陽街口,捷運西門站(3號出口),4666,25.03938,121.50772,25.04178,121.50869
中華貴陽街口,捷運西門站(2號出口),1111,25.03938,121.50772,25.0416,121.50842
中華貴陽街口,捷運臺大醫院站(4號出口),701,25.03938,121.50772,25.04297,121.51643
林森濟南路口(東北側),華山文創園區,611,25.0425,121.5227,25.04367,121.52849
捷運忠孝新生站(2號出口),華山文創園區,2015,25.04235,121.53222,25.04367,121.52849
忠孝東路三段217巷口,華山文創園區,763,25.04176,121.54027,25.04367,121.52849
捷運忠孝新生站(4號出口),華山文創園區,916,25.04239,121.53324,25.04367,121.52849
捷運中山站(2號出口),華山文創園區,1039,25.05228,121.52176,25.04367,121.52849
中山青島路口,華山文創園區,913,25.04503,121.51968,25.04367,121.52849
南京林森路口(東南側),捷運善導寺站(1號出口),1473,25.05201,121.52556,25.04527,121.5222
捷運善導寺站(1號出口),捷運臺北車站(M2出口),753,25.04527,121.5222,25.04821,121.51903
中山徐州路口,捷運善導寺站(1號出口),650,25.04178,121.51907,25.04527,121.5222
捷運善導寺站(1號出口),臺大醫院兒童醫院,706,25.04527,121.5222,25.04461,121.5188
中山徐州路口,濟南紹興路口,979,25.04178,121.51907,25.04193,121.52459
捷運善導寺站(3號出口),林森仁愛路口,2731,25.04428,121.52336,25.03915,121.52163
南京太原路口,捷運中山站(2號出口),2213,25.05366,121.51638,25.05228,121.52176
捷運臺大醫院站(4號出口),林森仁愛路口,2098,25.04297,121.51643,25.03915,121.52163
中正運動中心,金甌女中,1100,25.03786,121.51985,25.03519,121.5245
中正運動中心,愛國金山路口,750,25.03786,121.51985,25.03164,121.52661
中正運動中心,信義連雲街口,1547,25.03786,121.51985,25.03377,121.53041
中正運動中心,羅斯福寧波東街口,1931,25.03786,121.51985,25.03145,121.51941
中正運動中心,捷運古亭站(2號出口),1975,25.03786,121.51985,25.0255,121.52346
中正運動中心,羅斯福路二段6巷口,846,25.03786,121.51985,25.02923,121.52058
中正運動中心,捷運古亭站(6號出口),2370,25.03786,121.51985,25.0276,121.52217
中正運動中心,捷運臺大醫院站(4號出口),3574,25.03786,121.51985,25.04297,121.51643
中正運動中心,中華桂林路口,1121,25.03786,121.51985,25.03771,121.50662
中正運動中心,捷運中正紀念堂站(3號出口),1139,25.03786,121.51985,25.03239,121.51866
中正運動中心,捷運中正紀念堂站(4號出口),2347,25.03786,121.51985,25.03376,121.51772
中正運動中心,信義杭州路口,3808,25.03786,121.51985,25.0357,121.5241
中正運動中心,臺大醫院兒童醫院,2020,25.03786,121.51985,25.04461,121.5188
中正運動中心,捷運東門站(5號出口),2871,25.03786,121.51985,25.03363,121.52962
中山青島路口,信義杭州路口,662,25.04503,121.51968,25.0357,121.5241
信義杭州路口,捷運古亭站(6號出口),4858,25.0357,121.5241,25.0276,121.52217
信義杭州路口,金山信義路口,7455,25.0357,121.5241,25.03443,121.52721
信義杭州路口,捷運古亭站(9號出口),634,25.0357,121.5241,25.02694,121.52224
信義杭州路口,臺灣師範大學(圖書館),851,25.0357,121.5241,25.0266,121.52973
信義杭州路口,捷運東門站(5號出口),4173,25.0357,121.5241,25.03363,121.52962
信義杭州路口,羅斯福寧波東街口,1072,25.0357,121.5241,25.03145,121.51941
信義杭州路口,捷運臺大醫院站(4號出口),1858,25.0357,121.5241,25.04297,121.51643
信義杭州路口,捷運臺北車站(M2出口),659,25.0357,121.5241,25.04821,121.51903
捷運行天宮站(3號出口),民生建國路口,3338,25.05992,121.5333,25.05778,121.53692
成功金龍路口,碧山公園,8860,25.08436,121.59478,25.0878,121.59227
南港加壓站,捷運南港展覽館站(7號出口),1321,25.04805,121.61594,25.05436,121.6181
信義杭州路口,紹興徐州路口,642,25.0357,121.5241,25.04051,121.52401
信義杭州路口,臺大醫院兒童醫院,1409,25.0357,121.5241,25.04461,121.5188
捷運善導寺站(3號出口),紹興徐州路口,1613,25.04428,121.52336,25.04051,121.52401
捷運善導寺站(3號出口),林森徐州路口,3545,25.04428,121.52336,25.04094,121.52215
信義杭州路口,捷運善導寺站(3號出口),1177,25.0357,121.5241,25.04428,121.52336
中山徐州路口,捷運善導寺站(3號出口),1578,25.04178,121.51907,25.04428,121.52336
市民林森路口,捷運善導寺站(3號出口),691,25.04796,121.52439,25.04428,121.52336
仁愛紹興街口(南側),捷運善導寺站(3號出口),1436,25.03837,121.52345,25.04428,121.52336
捷運小南門站(1號出口),西本願寺廣場,696,25.03648,121.50951,25.04099,121.50769
捷運小南門站(1號出口),捷運西門站(3號出口),736,25.03648,121.50951,25.04178,121.50869
捷運小南門站(1號出口),桂林昆明街口,5594,25.03648,121.50951,25.03811,121.50362
復華花園新城,捷運小南門站(1號出口),603,25.02964,121.50258,25.03648,121.50951
捷運小南門站(1號出口),聯合醫院和平院區,1748,25.03648,121.50951,25.03516,121.50641
捷運小南門站(1號出口),老松國小,1616,25.03648,121.50951,25.03792,121.50177
延平南路133巷口,捷運小南門站(1號出口),1764,25.03792,121.50846,25.03648,121.50951
捷運小南門站(1號出口),華西公園,1311,25.03648,121.50951,25.03852,121.49881
延平南路133巷口,萬華火車站(D2廣場),671,25.03792,121.50846,25.03394,121.50117
延平南路133巷口,捷運臺大醫院站(4號出口),1525,25.03792,121.50846,25.04297,121.51643
延平南路133巷口,西本願寺廣場,1227,25.03792,121.50846,25.04099,121.50769
延平南路133巷口,捷運西門站(3號出口),3800,25.03792,121.50846,25.04178,121.50869
延平南路133巷口,華西公園,673,25.03792,121.50846,25.03852,121.49881
南機場夜市(中華路二段),延平南路133巷口,708,25.02886,121.50518,25.03792,121.50846
中華桂林路口,捷運西門站(2號出口),2508,25.03771,121.50662,25.0416,121.50842
南門國中,捷運西門站(2號出口),604,25.03543,121.50834,25.0416,121.50842
國家圖書館,寶慶博愛路口,865,25.03763,121.51709,25.04129,121.5112
法務部,西本願寺廣場,966,25.03705,121.51249,25.04099,121.50769
捷運小南門站(1號出口),臺北市立大學(博愛校區),2352,25.03648,121.50951,25.03545,121.51327
捷運臺大醫院站(1號出口),臺北市立大學(博愛校區),718,25.04074,121.51586,25.03545,121.51327
捷運西門站(2號出口),臺北市立大學(博愛校區),997,25.0416,121.50842,25.03545,121.51327
捷運臺大醫院站(4號出口),臺北市立大學(博愛校區),5346,25.04297,121.51643,25.03545,121.51327
捷運西門站(3號出口),臺北市立大學(博愛校區),1347,25.04178,121.50869,25.03545,121.51327
國家圖書館,捷運臺大醫院站(1號出口),1011,25.03763,121.51709,25.04074,121.51586
國家圖書館,開封西寧路口,974,25.03763,121.51709,25.04662,121.50717
國家圖書館,捷運臺大醫院站(4號出口),6210,25.03763,121.51709,25.04297,121.51643
國家圖書館,捷運中正紀念堂站(6號出口),759,25.03763,121.51709,25.03615,121.5166
國家圖書館,捷運中正紀念堂站(4號出口),1153,25.03763,121.51709,25.03376,121.51772
國家圖書館,金山信義路口,605,25.03763,121.51709,25.03443,121.52721
國家圖書館,郵政博物館,732,25.03763,121.51709,25.03158,121.51464
國家圖書館,捷運中正紀念堂站(5號出口),1139,25.03763,121.51709,25.03526,121.5168
市民金山路口,林森長春路口,609,25.0459,121.53068,25.05497,121.52536
市民金山路口,臺北市國父史蹟館(逸仙公園),1066,25.0459,121.53068,25.04779,121.52042
南京新生路口,市民金山路口,725,25.05194,121.52766,25.0459,121.53068
